~Version
 VERS              .         2.0                           : CWLS LOG ASCII STANDARD - VERSION 2.0
 WRAP              .         NO                            : ONE LINE PER DEPTH STEP
 DLM               .         SPACE                         : DELIMITING CHARACTER(SPACE TAB OR COMMA)
~Well Information
#_______________________________________________________________________________
#
#PARAMETER_NAME    .UNIT     VALUE                         : DESCRIPTION
#_______________________________________________________________________________
STRT               .M        0.8                           : First reference value
STOP               .M        1244.8                        : Last reference value
STEP               .M        0.1                           : Step increment
NULL               .         -9999                         : Missing value
COMP               .                                       : Company
WELL               .         8384                          : Well name
FLD                .         Узень                         : Field
LOC                .                                       : Location
CNTY               .                                       : County
STAT               .                                       : State
CTRY               .                                       : Country
SRVC               .         AO "UPGF"                     : Service Company
DATE               .         31.07.2020                    : Date
API                .                                       : API number
Block              .         6                             : 
Cartographic_reference_system .         GCS_WGS_1984                  : ESRI,PE_10_3_1- <?xml version="1.0" encoding="utf-16"?><ILateBoundCoordinateReferenceSystem name="GCS_WGS_1984"><AuthorityCode>EPSG,4326</AuthorityCode></ILateBoundCoordinateReferenceSystem>
Category           .         добывающая                    : 
Condition          .                                       : 
EREF               .м        83.697                        : 
GRP                .                                       : Group name
Gorizont           .         14                            : 
HZCS               .GCS_WGS_1984 WGS_1984_EASE-Grid_2.0_Global : ESRI,PE_10_3_1- <?xml version="1.0" encoding="utf-16"?><ILateBoundCoordinateReferenceSystem name="WGS_1984_EASE-Grid_2.0_Global"><AuthorityCode>EPSG,6933</AuthorityCode></ILateBoundCoordinateReferenceSystem>
ISS                .                                       : Well surveys
Interpretator      .         Тлеужанов А.З.                : 
Kupol              .         Основной                      : 
LATI               .dega     0.6690890312                  : GCS_WGS_1984
LONG               .dega     0.4572981763                  : GCS_WGS_1984
Mud                .         полимерный                    : 
Mud_density        .         1.34                          : 
Mud_resistivity    .         0.37                          : 
NGDU               .         НГДУ-2                        : 
TIME               .         12_19                         : LOG TIME
Viscosity          .         45                            : 
X                  .м        44123.00                      : 
Y                  .м        85356.00                      : 
YEAR               .         2020                          : 
kvartal            .         3                             : 
~Parameter Information Block
#_______________________________________________________________________________
#
#PARAMETER_NAME    .UNIT     VALUE                         : DESCRIPTION
#_______________________________________________________________________________
SET                .         LQC_KAZNIPI_Petrel            : 
SET_200            .                                       : 
SET_500            .                                       : 
SET_8384_ВИКИЗ     .                                       : 
SET_АК             .                                       : 
SET_результат      .                                       : 
STEP_200           .M        0.100                         : Depth increment
STEP_500           .M        0.100                         : Depth increment
STEP_8384_ВИКИЗ    .M        0.10                          : Depth increment
STEP_АК            .M        0.100                         : Depth increment
STEP_результат     .M        0.100                         : Depth increment
STOP_200           .M        1244.780                      : Last depth in file
STOP_500           .M        1244.500                      : Last depth in file
STOP_8384_ВИКИЗ    .M        1241.90                       : Last depth in file
STOP_АК            .M        1242.300                      : Last depth in file
STOP_результат     .M        1240.000                      : Last depth in file
STRT_200           .M        199.680                       : First depth in file
STRT_500           .M        0.800                         : First depth in file
STRT_8384_ВИКИЗ    .M        First depth in file           : 
STRT_АК            .M        874.900                       : First depth in file
STRT_результат     .M        880.000                       : First depth in file
TLFamily_CALI      .         Caliper                       : 
TLFamily_COLL      .         Net Reservoir Flag            : 
TLFamily_CSAT      .         Fluid Code                    : 
TLFamily_DT        .         Compressional Slowness        : 
TLFamily_GR        .         Russian Gamma Ray             : 
TLFamily_GZ3       .         Gradient 225                  : 
TLFamily_IK1       .         Resistivity 05                : 
TLFamily_IK2       .         Resistivity 07                : 
TLFamily_IK3       .         Resistivity 10                : 
TLFamily_IK4       .         Resistivity 14                : 
TLFamily_IK5       .         Resistivity 20                : 
TLFamily_LLS       .         Lateral Log Resistivity       : 
TLFamily_MBK       .         Micro Lateral Log Resistivity : 
TLFamily_MD        .         Measured Depth                : 
TLFamily_MINV      .         Micro Gradient Resistivity    : 
TLFamily_MNOR      .         Micro Resistivity             : 
TLFamily_NNKTb     .         Neutron Far                   : 
TLFamily_NNKTm     .         Neutron Near                  : 
TLFamily_NPHI      .         Neutron Porosity              : 
TLFamily_PHIE      .         Effective Porosity            : 
TLFamily_PHIED     .         Effective Porosity            : 
TLFamily_PHIEN     .         Effective Porosity            : 
TLFamily_PHIES     .         Effective Porosity            : 
TLFamily_PHIT      .         Porosity                      : 
TLFamily_PRMB      .         Permeability                  : 
TLFamily_PRMB_DGR  .         Permeability                  : 
TLFamily_RHOB      .         Bulk Density                  : 
TLFamily_RT        .         Formation Resistivity         : 
TLFamily_SOIL_ARCHIE .         Oil Saturation                : 
TLFamily_SOIL_DW   .         Oil Saturation                : 
TLFamily_SP        .         Spontaneous Potential         : 
TLFamily_VSH_FIN   .         Shale Volume                  : 
TLFamily_VSH_GR    .         Shale Volume                  : 
TLFamily_VSH_SP    .         Shale Volume                  : 
~Curve Information
#_______________________________________________________________________________
#
#LOGNAME           .UNIT     LOG_ID                        : DESCRIPTION
#_______________________________________________________________________________
MD                 .M                                      :  
CALI               .MM                                     : Кавернометрия 
COLL               .unitless                               : Описание 
CSAT               .unitless                               : Описание 
DT                 .мкс/м                                  : ДельтаТ - Волна по породе 
GR                 .uR/h                                   : Гамма-активность 
GZ3                .Ом·м                                   : A2.0M0.5N 
IK1                .Ohmm                                   : И0.10И0.40 
IK2                .Ohmm                                   : И0.14И0.56 
IK3                .Ohmm                                   : И0.20И0.80 
IK4                .Ohmm                                   : И0.28И1.12 
IK5                .Ohmm                                   : И0.40И1.60 
LLS                .Ом·м                                   : БК 
MBK                .Ом·м                                   : БМК 
MINV               .Ом·м                                   : Градиент-микрозонд 
MNOR               .Ом·м                                   : Потенциал-микрозонд 
NNKTb              .UE                                     : Большой зонд ННК 
NNKTm              .UE                                     : Малый зонд ННК 
NPHI               .V/V                                    : Neutron porosity index 
PHIE               .v/v                                    : Описание 
PHIED              .v/v                                    :  
PHIEN              .v/v                                    :  
PHIES              .v/v                                    :  
PHIT               .v/v                                    : Описание 
PRMB               .mD                                     :  
PRMB_DGR           .mD                                     :  
RHOB               .G/CM3                                  : ГГКП 
RT                 .ohmm                                   : Description 
SOIL_ARCHIE        .v/v                                    :  
SOIL_DW            .v/v                                    :  
SP                 .мВ                                     : ПС 
VSH_FIN            .v/v                                    : Описание 
VSH_GR             .v/v                                    : Shale volume 
VSH_SP             .v/v                                    : Shale Volume 
~Ascii
# ...
1063.4     229.6      -9999      -9999      337.178    9.816      1.954      1.54       1.675      1.693      1.717      1.735      1.685177   2.671754   1.933206   2.264551   2.492      1.564      0.325      0.135308   0.04356511 0.1848246  0.1775342  0.2264262  0.8982354  2.707361   2.44008    1.735      0.01418403 0.233278   383.148    0.4247739  0.4320073  0.4175405 
1063.5     236.6      -9999      -9999      336.178    9.954      1.817      1.452      1.595      1.637      1.686      1.72       1.62819    2.6        1.864993   2.24077    2.439      1.556      0.333      0.1388764  0.04959448 0.1916376  0.1753972  0.2307662  1.04589    2.428022   2.42868    1.72       0.0323478  0.2465491  382.232    0.428371   0.4516506  0.4050914 
1063.6     246.9      -9999      -9999      336.244    10         1.884      1.42       1.57       1.63       1.694      1.742      1.62453    2.6        1.81299    2.271549   2.383      1.55       0.342      0.1477071  0.06337598 0.2025062  0.1772393  0.2383823  1.524237   2.363366   2.40776    1.742      0.08838579 0.2836751  380.991    0.4227087  0.4566559  0.3887615 
1063.7     237        -9999      -9999      336.366    9.712      1.977      1.432      1.595      1.682      1.758      1.793      1.669156   2.6        1.83704    2.307969   2.317      1.555      0.353      0.1654963  0.08511732 0.2240198  0.1873517  0.2493372  3.254997   3.097036   2.38324    1.793      0.185452   0.3435033  379.725    0.3908489  0.4089257  0.3727722 
1063.8     242.8      -9999      -9999      334.7      9.3        2.027      1.502      1.672      1.784      1.851      1.877      1.74998    2.620669   1.89038    2.355329   2.307      1.566      0.354      0.2013887  0.1691736  0.2374879  0.1975045  0.277125   15.04407   4.532159   2.38748    1.877      0.3280455  0.4438048  378.345    0.3530669  0.3500442  0.3560896 
1063.9     243        -9999      -9999      330.267    9.149      2.148      1.58       1.805      1.911      1.979      1.984      1.864004   2.754179   1.902771   2.471649   2.333      1.579      0.35       0.1968834  0.1492934  0.2411554  0.2002015  0.2676357  12.41415   5.257158   2.42068    1.984      0.3322727  0.4426602  376.07     0.3298321  0.3294636  0.3302005 
1064       242.3      -9999      -9999      324.933    9.202      2.219      1.702      1.963      2.084      2.159      2.114      2.003217   2.977785   1.879996   2.59518    2.401      1.588      0.339      0.182209   0.1178443  0.2322639  0.1965187  0.2515905  6.639112   5.08537    2.4732     2.114      0.3066331  0.4219002  374.44     0.3234426  0.3339635  0.3129217 
1064.1     232.6      -9999      -9999      320.533    9.015      2.288      1.988      2.225      2.304      2.299      2.19       2.295905   3.110733   1.905946   2.791763   2.484      1.593      0.326      0.1702418  0.08910183 0.2247375  0.1968861  0.2360654  3.985195   6.090979   2.5212     2.19       0.2764624  0.3936026  373.502    0.306856   0.3102417  0.3034703 
1064.2     224.5      -9999      -9999      316.067    8.748      2.352      2.199      2.33       2.338      2.319      2.197      2.372596   3.350661   2.067813   2.824311   2.527      1.59       0.32       0.1656653  0.07535322 0.2244101  0.1972325  0.2278015  3.27854    7.833999   2.54416    2.197      0.2601932  0.3747801  373.082    0.2896664  0.2799439  0.299389  
1064.3     225.3      -9999      -9999      312.1      8.847      2.274      2.042      2.169      2.182      2.198      2.136      2.16817    3.156614   2.114724   2.341956   2.532      1.579      0.319      0.163444   0.07750898 0.2217593  0.1910635  0.2266533  2.982199   7.273927   2.54056    2.136      0.2414873  0.3604709  373.215    0.2946686  0.2885527  0.3007846 
1064.4     234.2      -9999      -9999      312.633    9.095      2.294      1.864      1.987      1.995      1.988      2.002      1.920611   2.581717   1.935366   1.995935   2.474      1.559      0.328      0.1701884  0.09762879 0.2258819  0.1870545  0.2365682  3.976125   5.914872   2.50696    2.002      0.2451308  0.3664777  373.621    0.3094487  0.3139808  0.3049167 
1064.5     243.7      -9999      -9999      323.6      9.425      2.251      1.672      1.81       1.804      1.846      1.869      1.757081   2.1765     1.710503   1.975856   2.399      1.54       0.339      0.1830805  0.1298921  0.2281703  0.1911791  0.2551231  6.89054    4.471127   2.45308    1.869      0.2684202  0.3913846  375.046    0.3358475  0.3519875  0.3197075 
1064.6     254.9      -9999      -9999      339.2      9.988      2.187      1.531      1.679      1.698      1.744      1.784      1.619925   1.921656   1.521564   2.02719    2.323      1.528      0.352      0.1664781  0.07971612 0.2263557  0.1933625  0.2481507  3.394193   2.746637   2.396      1.784      0.1877217  0.3415793  376.175    0.3807404  0.429474   0.3320067 
1064.7     254.4      -9999      -9999      352.867    10.337     2.124      1.427      1.596      1.649      1.697      1.746      1.5612     1.870539   1.462773   2.04       2.26       1.526      0.362      0.1690498  0.08464102 0.22596    0.1965484  0.2574798  3.78766    2.041394   2.37612    1.746      0.1903557  0.3529016  376.854    0.4122423  0.4847978  0.3396867 
1064.8     253.2      -9999      -9999      359        10.476     2.212      1.379      1.589      1.673      1.718      1.75       1.572069   1.98412    1.521543   2.04       2.249      1.528      0.364      0.1647445  0.07428872 0.2227797  0.1971652  0.2565419  3.152293   1.829142   2.3876     1.75       0.1728471  0.3454196  377.645    0.4279402  0.5070255  0.3488549 
1064.9     249        -9999      -9999      358.833    10.448     2.306      1.393      1.629      1.748      1.782      1.791      1.63042    2.172527   1.557873   2.057497   2.272      1.528      0.36       0.1592302  0.06247278 0.218483   0.1967349  0.2512205  2.491656   1.901674   2.407      1.791      0.1571628  0.3357425  378.466    0.4288396  0.4990379  0.3586412 
1065       244.6      -9999      -9999      356        10.282     2.374      1.48       1.695      1.826      1.85       1.84       1.716936   2.511233   1.612147   2.143793   2.313      1.529      0.353      0.1583464  0.06224062 0.2151329  0.1976657  0.2479641  2.399484   2.235536   2.41148    1.84       0.1637268  0.338046   379.263    0.4177789  0.4671431  0.3684148 
1065.1     237.3      -9999      -9999      351.967    10.093     2.39       1.571      1.765      1.869      1.889      1.876      1.768907   2.692892   1.684158   2.207191   2.351      1.528      0.347      0.1591269  0.06526657 0.2137469  0.1983673  0.2457454  2.480703   2.682375   2.4116     1.876      0.1748375  0.3422258  379.701    0.4037972  0.433646   0.3739483 
1065.2     233.8      -9999      -9999      348.645    9.944      2.277      1.571      1.723      1.827      1.882      1.899      1.723905   2.591911   1.746378   2.206435   2.387      1.526      0.341      0.1608392  0.07261806 0.2112762  0.1986234  0.2451635  2.668647   3.105935   2.40328    1.899      0.1871553  0.3481409  379.996    0.3931022  0.4084469  0.3777576 
1065.3     237.9      -9999      -9999      344.589    9.843      2.295      1.508      1.671      1.756      1.87       1.905      1.691386   2.392992   1.738048   2.166041   2.4        1.528      0.339      0.1615747  0.07596739 0.2116962  0.1970604  0.2443259  2.753676   3.445927   2.4004     1.905      0.1915761  0.3490559  380.169    0.385769   0.3914841  0.3800539 
1065.4     244.8      -9999      -9999      339.256    9.64       2.336      1.504      1.684      1.768      1.895      1.932      1.727404   2.413933   1.627055   2.242497   2.416      1.532      0.337      0.1879797  0.1536048  0.2142071  0.1961273  0.2677988  8.491768   4.186557   2.41348    1.932      0.296091   0.4245051  380.363    0.3720998  0.3615673  0.3826324 
1065.5     241.9      -9999      -9999      335.844    9.38       2.4        1.562      1.78       1.833      1.949      1.969      1.840149   2.50999    1.593876   2.358086   2.386      1.539      0.341      0.1845006  0.1350418  0.2220795  0.1963806  0.2618025  7.320772   5.351144   2.44448    1.969      0.2908851  0.4178326  381.204    0.3603652  0.3270883  0.3936421 
