~Version
 VERS              .         2.0                           : CWLS LOG ASCII STANDARD - VERSION 2.0
 WRAP              .         NO                            : ONE LINE PER DEPTH STEP
 DLM               .         SPACE                         : DELIMITING CHARACTER(SPACE TAB OR COMMA)
~Well Information
#_______________________________________________________________________________
#
#PARAMETER_NAME    .UNIT     VALUE                         : DESCRIPTION
#_______________________________________________________________________________
STRT               .M        0.8                           : First reference value
STOP               .M        1244.8                        : Last reference value
STEP               .M        0.1                           : Step increment
NULL               .         -9999                         : Missing value
COMP               .                                       : Company
WELL               .         8384                          : Well name
FLD                .         Узень                         : Field
LOC                .                                       : Location
CNTY               .                                       : County
STAT               .                                       : State
CTRY               .                                       : Country
SRVC               .         AO "UPGF"                     : Service Company
DATE               .         31.07.2020                    : Date
API                .                                       : API number
Block              .         6                             : 
Cartographic_reference_system .         GCS_WGS_1984                  : ESRI,PE_10_3_1- <?xml version="1.0" encoding="utf-16"?><ILateBoundCoordinateReferenceSystem name="GCS_WGS_1984"><AuthorityCode>EPSG,4326</AuthorityCode></ILateBoundCoordinateReferenceSystem>
Category           .         добывающая                    : 
Condition          .                                       : 
EREF               .м        83.697                        : 
GRP                .                                       : Group name
Gorizont           .         14                            : 
HZCS               .GCS_WGS_1984 WGS_1984_EASE-Grid_2.0_Global : ESRI,PE_10_3_1- <?xml version="1.0" encoding="utf-16"?><ILateBoundCoordinateReferenceSystem name="WGS_1984_EASE-Grid_2.0_Global"><AuthorityCode>EPSG,6933</AuthorityCode></ILateBoundCoordinateReferenceSystem>
ISS                .                                       : Well surveys
Interpretator      .         Тлеужанов А.З.                : 
Kupol              .         Основной                      : 
LATI               .dega     0.6690890312                  : GCS_WGS_1984
LONG               .dega     0.4572981763                  : GCS_WGS_1984
Mud                .         полимерный                    : 
Mud_density        .         1.34                          : 
Mud_resistivity    .         0.37                          : 
NGDU               .         НГДУ-2                        : 
TIME               .         12_19                         : LOG TIME
Viscosity          .         45                            : 
X                  .м        44123.00                      : 
Y                  .м        85356.00                      : 
YEAR               .         2020                          : 
kvartal            .         3                             : 
~Parameter Information Block
#_______________________________________________________________________________
#
#PARAMETER_NAME    .UNIT     VALUE                         : DESCRIPTION
#_______________________________________________________________________________
SET                .         LQC_KAZNIPI_Petrel            : 
SET_200            .                                       : 
SET_500            .                                       : 
SET_8384_ВИКИЗ     .                                       : 
SET_АК             .                                       : 
SET_результат      .                                       : 
STEP_200           .M        0.100                         : Depth increment
STEP_500           .M        0.100                         : Depth increment
STEP_8384_ВИКИЗ    .M        0.10                          : Depth increment
STEP_АК            .M        0.100                         : Depth increment
STEP_результат     .M        0.100                         : Depth increment
STOP_200           .M        1244.780                      : Last depth in file
STOP_500           .M        1244.500                      : Last depth in file
STOP_8384_ВИКИЗ    .M        1241.90                       : Last depth in file
STOP_АК            .M        1242.300                      : Last depth in file
STOP_результат     .M        1240.000                      : Last depth in file
STRT_200           .M        199.680                       : First depth in file
STRT_500           .M        0.800                         : First depth in file
STRT_8384_ВИКИЗ    .M        First depth in file           : 
STRT_АК            .M        874.900                       : First depth in file
STRT_результат     .M        880.000                       : First depth in file
TLFamily_CALI      .         Caliper                       : 
TLFamily_COLL      .         Net Reservoir Flag            : 
TLFamily_CSAT      .         Fluid Code                    : 
TLFamily_DT        .         Compressional Slowness        : 
TLFamily_GR        .         Russian Gamma Ray             : 
TLFamily_GZ3       .         Gradient 225                  : 
TLFamily_IK1       .         Resistivity 05                : 
TLFamily_IK2       .         Resistivity 07                : 
TLFamily_IK3       .         Resistivity 10                : 
TLFamily_IK4       .         Resistivity 14                : 
TLFamily_IK5       .         Resistivity 20                : 
TLFamily_LLS       .         Lateral Log Resistivity       : 
TLFamily_MBK       .         Micro Lateral Log Resistivity : 
TLFamily_MD        .         Measured Depth                : 
TLFamily_MINV      .         Micro Gradient Resistivity    : 
TLFamily_MNOR      .         Micro Resistivity             : 
TLFamily_NNKTb     .         Neutron Far                   : 
TLFamily_NNKTm     .         Neutron Near                  : 
TLFamily_NPHI      .         Neutron Porosity              : 
TLFamily_PHIE      .         Effective Porosity            : 
TLFamily_PHIED     .         Effective Porosity            : 
TLFamily_PHIEN     .         Effective Porosity            : 
TLFamily_PHIES     .         Effective Porosity            : 
TLFamily_PHIT      .         Porosity                      : 
TLFamily_PRMB      .         Permeability                  : 
TLFamily_PRMB_DGR  .         Permeability                  : 
TLFamily_RHOB      .         Bulk Density                  : 
TLFamily_RT        .         Formation Resistivity         : 
TLFamily_SOIL_ARCHIE .         Oil Saturation                : 
TLFamily_SOIL_DW   .         Oil Saturation                : 
TLFamily_SP        .         Spontaneous Potential         : 
TLFamily_VSH_FIN   .         Shale Volume                  : 
TLFamily_VSH_GR    .         Shale Volume                  : 
TLFamily_VSH_SP    .         Shale Volume                  : 
~Curve Information
#_______________________________________________________________________________
#
#LOGNAME           .UNIT     LOG_ID                        : DESCRIPTION
#_______________________________________________________________________________
MD                 .M                                      :  
CALI               .MM                                     : Кавернометрия 
COLL               .unitless                               : Описание 
CSAT               .unitless                               : Описание 
DT                 .мкс/м                                  : ДельтаТ - Волна по породе 
GR                 .uR/h                                   : Гамма-активность 
GZ3                .Ом·м                                   : A2.0M0.5N 
IK1                .Ohmm                                   : И0.10И0.40 
IK2                .Ohmm                                   : И0.14И0.56 
IK3                .Ohmm                                   : И0.20И0.80 
IK4                .Ohmm                                   : И0.28И1.12 
IK5                .Ohmm                                   : И0.40И1.60 
LLS                .Ом·м                                   : БК 
MBK                .Ом·м                                   : БМК 
MINV               .Ом·м                                   : Градиент-микрозонд 
MNOR               .Ом·м                                   : Потенциал-микрозонд 
NNKTb              .UE                                     : Большой зонд ННК 
NNKTm              .UE                                     : Малый зонд ННК 
NPHI               .V/V                                    : Neutron porosity index 
PHIE               .v/v                                    : Описание 
PHIED              .v/v                                    :  
PHIEN              .v/v                                    :  
PHIES              .v/v                                    :  
PHIT               .v/v                                    : Описание 
PRMB               .mD                                     :  
PRMB_DGR           .mD                                     :  
RHOB               .G/CM3                                  : ГГКП 
RT                 .ohmm                                   : Description 
SOIL_ARCHIE        .v/v                                    :  
SOIL_DW            .v/v                                    :  
SP                 .мВ                                     : ПС 
VSH_FIN            .v/v                                    : Описание 
VSH_GR             .v/v                                    : Shale volume 
VSH_SP             .v/v                                    : Shale Volume 
~Ascii
# ...
1188.8     218.3      1          2          345.868    8.232      3.62       6.151      3.873      3.184      3.168      2.984      4.091228   6.05       2.76678    3.60098    2.619      1.668      0.306      0.2378842  0.2615808  0.2172008  0.2348709  0.2956063  71.34276   20.95782   2.23316    2.984      0.5389154  0.6094009  301.991    0.2690884  0.1873115  0.3508654 
1188.9     218.6      1          2          343.331    8.522      3.61       6.023      3.832      3.026      2.997      2.811      3.948646   6.028853   2.743997   3.57098    2.586      1.661      0.311      0.232866   0.2565509  0.2157497  0.2262975  0.2947816  57.59728   15.74051   2.24156    2.811      0.5169225  0.5932606  303.172    0.2886374  0.2105385  0.3667364 
1189       216.5      1          2          340.331    8.856      3.518      5.736001   3.753      2.884      2.812      2.606      3.768956   5.914693   2.736      3.527384   2.548      1.655      0.316      0.2263313  0.2492215  0.2133975  0.2163751  0.293026   43.58766   11.36786   2.2538     2.606      0.4868841  0.5709865  304.199    0.3109168  0.2404613  0.3813724 
1189.1     216.8      1          2          334.968    9.145      3.381      5.29       3.61       2.732      2.522      2.37       3.496921   5.764684   2.736      3.42112    2.502      1.652      0.323      0.2204909  0.2450539  0.2127199  0.2036989  0.2921762  33.97689   8.545503   2.26076    2.37       0.4511543  0.5443992  305.346    0.3341823  0.2701809  0.3981836 
1189.2     216.7      1          2          325.913    9.312      3.216      4.724      3.347      2.462      2.249      2.143      3.068976   5.57109    2.740982   3.258756   2.474      1.653      0.328      0.2101333  0.2312096  0.2111871  0.1880034  0.2860652  21.84426   7.160885   2.28388    2.143      0.3999763  0.5050876  306.625    0.3539786  0.2904041  0.4175532 
1189.3     218.7      -9999      -9999      319.771    9.25       3.044      4.077      2.868      2.156      1.937      1.94       2.526153   5.214124   2.763196   3.017714   2.48       1.645      0.327      0.2026716  0.2228264  0.206977   0.1782114  0.2806901  15.89014   7.35761    2.29788    1.94       0.3511775  0.4660661  308.067    0.3637061  0.287208   0.4402041 
1189.4     219        -9999      -9999      317.48     9.482      2.877      3.156      2.17       1.794      1.678      1.758      2.035829   4.856205   2.76678    2.756738   2.483      1.632      0.326      0.1581944  0.1118624  0.1962924  0.1664285  0.2425083  2.38398    5.81881    2.33776    1.758      0.1568237  0.3230216  309.898    0.3930535  0.3160872  0.4700198 
1189.5     223.3      -9999      -9999      318.299    10.213     2.74       2.142      1.703      1.503      1.46       1.575      1.68755    4.463799   2.738762   2.483047   2.457      1.61       0.33       0.1311327  0.06536219 0.1799793  0.1480565  0.2286506  0.7517148  2.951195   2.39264    1.575      0          0.2009213  311.147    0.4546082  0.4170598  0.4921565 
1189.6     225        -9999      -9999      317.214    10.842     2.624      1.698      1.492      1.364      1.362      1.481      1.523633   4.171844   2.676796   2.330731   2.409      1.59       0.338      0.1024807  0.01880741 0.1643026  0.1243322  0.2153892  0.2214879  1.639076   2.44384    1.481      0          0.05892371 312.821    0.5263557  0.5302568  0.5224545 
1189.7     227.2      -9999      -9999      317.496    11.224     2.608      1.564      1.438      1.352      1.333      1.427      1.472137   4.078782   2.535069   2.2056     2.383      1.577      0.342      0.08481252 -0.0008808567 0.1490026  0.1063158  0.2102666  0.1042538  1.134228   2.45508    1.427      0          0          314.44     0.5848405  0.6162802  0.5534009 
1189.8     223.2      -9999      -9999      320.592    11.459     2.528      1.509      1.437      1.372      1.347      1.415      1.469925   3.985959   2.484      2.220161   2.391      1.575      0.341      0.07646553 0.002405152 0.1322051  0.09478638 0.2121884  0.0730273  0.92011    2.43188    1.415      0          0          316.493    0.6327119  0.6712427  0.5941811 
1189.9     225        -9999      -9999      322.163    11.197     2.51       1.574      1.493      1.411      1.365      1.415      1.611928   4.011081   2.48898    2.329141   2.446      1.577      0.332      0.08457613 0.02494625 0.1278462  0.1009359  0.2172822  0.103208   1.161822   2.39944    1.415      0          0          318.027    0.6186479  0.6102608  0.627035  
1190       229.4      -9999      -9999      319.824    10.992     2.59       1.695      1.492      1.422      1.368      1.418      1.773799   4.291665   2.505993   2.536629   2.481      1.581      0.327      0.09040514 0.042667   0.1266221  0.1019264  0.2206568  0.1323368  1.394444   2.37408    1.418      0          0.006892867 318.914    0.6072059  0.5664355  0.6479763 
1190.1     229.8      -9999      -9999      313.386    10.541     2.64       1.591      1.369      1.362      1.362      1.422      1.758207   4.378797   2.486758   2.641787   2.474      1.58       0.328      0.1011329  0.05647304 0.1403012  0.1066244  0.2231427  0.2091146  2.083414   2.36524    1.422      0          0.05565282 319.195    0.5687842  0.4807811  0.6567873 
1190.2     226.6      -9999      -9999      305.8      10.294     2.703      1.435      1.266      1.327      1.367      1.435      1.686995   4.220457   2.419407   2.589872   2.428      1.571      0.335      0.1022318  0.04825787 0.1542587  0.1041789  0.2197191  0.2191489  2.595829   2.38676    1.435      0          0.05476938 319.008    0.547701   0.4394924  0.6559095 
1190.3     227.1      -9999      -9999      297.513    9.85       2.764      1.373      1.26       1.351      1.409      1.459      1.703514   3.885784   2.234655   2.395915   2.377      1.557      0.343      0.104563   0.03568421 0.1735339  0.1044711  0.2147211  0.242058   3.85429    2.4204     1.459      0          0.0573488  318.727    0.5135337  0.3739844  0.653083  
1190.4     227.7      -9999      -9999      294.929    9.695      2.68       1.323      1.272      1.357      1.444      1.478      1.671502   3.548423   2.086329   2.082314   2.355      1.538      0.347      0.1038224  0.02670384 0.1806759  0.1040873  0.2119379  0.2345309  4.4246     2.43892    1.478      0          0.05329689 318.652    0.5040123  0.3534942  0.6545305 
1190.5     236.4      -9999      -9999      297.701    9.568      2.577      1.111      1.158      1.29       1.442      1.492      1.392927   2.783198   2.009908   1.656659   2.339      1.518      0.349      0.1139443  0.04758281 0.184663   0.109587   0.2207682  0.3611454  4.954241   2.40628    1.492      0          0.1135696  318.695    0.497991   0.3375451  0.658437  
1190.6     262.9      -9999      -9999      309.064    9.474      2.586      1.046      1.163      1.282      1.456      1.512      1.255596   1.921441   1.782443   1.318589   2.307      1.504      0.354      0.133727   0.08635627 0.1904047  0.12442    0.2400688  0.8396664  5.386683   2.34236    1.512      0          0.2141791  318.877    0.4957432  0.3262055  0.665281  
1190.7     294.3      -9999      -9999      323.052    9.724      2.355      1.2        1.333      1.411      1.522      1.534      1.263795   1.606823   1.510786   1.197171   2.283      1.504      0.358      0.1410206  0.09951717 0.1886062  0.1349383  0.2511315  1.146043   4.311827   2.31388    1.534      0.006509151 0.2565818  318.927    0.5133145  0.3572406  0.6693884 
1190.8     255.2      -9999      -9999      336.434    10.06      2.214      1.369      1.48       1.54       1.613      1.576      1.272795   1.703119   1.431558   1.242436   2.307      1.518      0.354      0.1308581  0.07487187 0.1764386  0.1412639  0.2462783  0.7429648  3.197053   2.34588    1.576      0          0.235596   318.928    0.5380647  0.4036528  0.6724766 
1190.9     243.4      -9999      -9999      342.89     10.21      2.323      1.417      1.637      1.661      1.697      1.638      1.300531   1.984892   1.531756   1.405293   2.39       1.538      0.341      0.1123304  0.03312301 0.1597277  0.1441405  0.2301628  0.337124   2.797395   2.41144    1.638      0          0.1707374  318.777    0.54931    0.4262748  0.6723452 
