~Version
 VERS              .         2.0                           : CWLS LOG ASCII STANDARD - VERSION 2.0
 WRAP              .         NO                            : ONE LINE PER DEPTH STEP
 DLM               .         SPACE                         : DELIMITING CHARACTER(SPACE TAB OR COMMA)
~Well Information
#_______________________________________________________________________________
#
#PARAMETER_NAME    .UNIT     VALUE                         : DESCRIPTION
#_______________________________________________________________________________
STRT               .M        0.8                           : First reference value
STOP               .M        1244.8                        : Last reference value
STEP               .M        0.1                           : Step increment
NULL               .         -9999                         : Missing value
COMP               .                                       : Company
WELL               .         8384                          : Well name
FLD                .         Узень                         : Field
LOC                .                                       : Location
CNTY               .                                       : County
STAT               .                                       : State
CTRY               .                                       : Country
SRVC               .         AO "UPGF"                     : Service Company
DATE               .         31.07.2020                    : Date
API                .                                       : API number
Block              .         6                             : 
Cartographic_reference_system .         GCS_WGS_1984                  : ESRI,PE_10_3_1- <?xml version="1.0" encoding="utf-16"?><ILateBoundCoordinateReferenceSystem name="GCS_WGS_1984"><AuthorityCode>EPSG,4326</AuthorityCode></ILateBoundCoordinateReferenceSystem>
Category           .         добывающая                    : 
Condition          .                                       : 
EREF               .м        83.697                        : 
GRP                .                                       : Group name
Gorizont           .         14                            : 
HZCS               .GCS_WGS_1984 WGS_1984_EASE-Grid_2.0_Global : ESRI,PE_10_3_1- <?xml version="1.0" encoding="utf-16"?><ILateBoundCoordinateReferenceSystem name="WGS_1984_EASE-Grid_2.0_Global"><AuthorityCode>EPSG,6933</AuthorityCode></ILateBoundCoordinateReferenceSystem>
ISS                .                                       : Well surveys
Interpretator      .         Тлеужанов А.З.                : 
Kupol              .         Основной                      : 
LATI               .dega     0.6690890312                  : GCS_WGS_1984
LONG               .dega     0.4572981763                  : GCS_WGS_1984
Mud                .         полимерный                    : 
Mud_density        .         1.34                          : 
Mud_resistivity    .         0.37                          : 
NGDU               .         НГДУ-2                        : 
TIME               .         12_19                         : LOG TIME
Viscosity          .         45                            : 
X                  .м        44123.00                      : 
Y                  .м        85356.00                      : 
YEAR               .         2020                          : 
kvartal            .         3                             : 
~Parameter Information Block
#_______________________________________________________________________________
#
#PARAMETER_NAME    .UNIT     VALUE                         : DESCRIPTION
#_______________________________________________________________________________
SET                .         LQC_KAZNIPI_Petrel            : 
SET_200            .                                       : 
SET_500            .                                       : 
SET_8384_ВИКИЗ     .                                       : 
SET_АК             .                                       : 
SET_результат      .                                       : 
STEP_200           .M        0.100                         : Depth increment
STEP_500           .M        0.100                         : Depth increment
STEP_8384_ВИКИЗ    .M        0.10                          : Depth increment
STEP_АК            .M        0.100                         : Depth increment
STEP_результат     .M        0.100                         : Depth increment
STOP_200           .M        1244.780                      : Last depth in file
STOP_500           .M        1244.500                      : Last depth in file
STOP_8384_ВИКИЗ    .M        1241.90                       : Last depth in file
STOP_АК            .M        1242.300                      : Last depth in file
STOP_результат     .M        1240.000                      : Last depth in file
STRT_200           .M        199.680                       : First depth in file
STRT_500           .M        0.800                         : First depth in file
STRT_8384_ВИКИЗ    .M        First depth in file           : 
STRT_АК            .M        874.900                       : First depth in file
STRT_результат     .M        880.000                       : First depth in file
TLFamily_CALI      .         Caliper                       : 
TLFamily_COLL      .         Net Reservoir Flag            : 
TLFamily_CSAT      .         Fluid Code                    : 
TLFamily_DT        .         Compressional Slowness        : 
TLFamily_GR        .         Russian Gamma Ray             : 
TLFamily_GZ3       .         Gradient 225                  : 
TLFamily_IK1       .         Resistivity 05                : 
TLFamily_IK2       .         Resistivity 07                : 
TLFamily_IK3       .         Resistivity 10                : 
TLFamily_IK4       .         Resistivity 14                : 
TLFamily_IK5       .         Resistivity 20                : 
TLFamily_LLS       .         Lateral Log Resistivity       : 
TLFamily_MBK       .         Micro Lateral Log Resistivity : 
TLFamily_MD        .         Measured Depth                : 
TLFamily_MINV      .         Micro Gradient Resistivity    : 
TLFamily_MNOR      .         Micro Resistivity             : 
TLFamily_NNKTb     .         Neutron Far                   : 
TLFamily_NNKTm     .         Neutron Near                  : 
TLFamily_NPHI      .         Neutron Porosity              : 
TLFamily_PHIE      .         Effective Porosity            : 
TLFamily_PHIED     .         Effective Porosity            : 
TLFamily_PHIEN     .         Effective Porosity            : 
TLFamily_PHIES     .         Effective Porosity            : 
TLFamily_PHIT      .         Porosity                      : 
TLFamily_PRMB      .         Permeability                  : 
TLFamily_PRMB_DGR  .         Permeability                  : 
TLFamily_RHOB      .         Bulk Density                  : 
TLFamily_RT        .         Formation Resistivity         : 
TLFamily_SOIL_ARCHIE .         Oil Saturation                : 
TLFamily_SOIL_DW   .         Oil Saturation                : 
TLFamily_SP        .         Spontaneous Potential         : 
TLFamily_VSH_FIN   .         Shale Volume                  : 
TLFamily_VSH_GR    .         Shale Volume                  : 
TLFamily_VSH_SP    .         Shale Volume                  : 
~Curve Information
#_______________________________________________________________________________
#
#LOGNAME           .UNIT     LOG_ID                        : DESCRIPTION
#_______________________________________________________________________________
MD                 .M                                      :  
CALI               .MM                                     : Кавернометрия 
COLL               .unitless                               : Описание 
CSAT               .unitless                               : Описание 
DT                 .мкс/м                                  : ДельтаТ - Волна по породе 
GR                 .uR/h                                   : Гамма-активность 
GZ3                .Ом·м                                   : A2.0M0.5N 
IK1                .Ohmm                                   : И0.10И0.40 
IK2                .Ohmm                                   : И0.14И0.56 
IK3                .Ohmm                                   : И0.20И0.80 
IK4                .Ohmm                                   : И0.28И1.12 
IK5                .Ohmm                                   : И0.40И1.60 
LLS                .Ом·м                                   : БК 
MBK                .Ом·м                                   : БМК 
MINV               .Ом·м                                   : Градиент-микрозонд 
MNOR               .Ом·м                                   : Потенциал-микрозонд 
NNKTb              .UE                                     : Большой зонд ННК 
NNKTm              .UE                                     : Малый зонд ННК 
NPHI               .V/V                                    : Neutron porosity index 
PHIE               .v/v                                    : Описание 
PHIED              .v/v                                    :  
PHIEN              .v/v                                    :  
PHIES              .v/v                                    :  
PHIT               .v/v                                    : Описание 
PRMB               .mD                                     :  
PRMB_DGR           .mD                                     :  
RHOB               .G/CM3                                  : ГГКП 
RT                 .ohmm                                   : Description 
SOIL_ARCHIE        .v/v                                    :  
SOIL_DW            .v/v                                    :  
SP                 .мВ                                     : ПС 
VSH_FIN            .v/v                                    : Описание 
VSH_GR             .v/v                                    : Shale volume 
VSH_SP             .v/v                                    : Shale Volume 
~Ascii
# ...
1012.8     233.2      -9999      -9999      344.234    7.758      1.83       1.571      1.713      1.774      1.826      1.841      1.796791   2.24287    1.720449   1.842598   2.676      1.635      0.298      0.09072059 0.0150825  0.1141168  0.1429625  0.2102502  0.1341293  1.605211   2.43864    1.841      0          0.09119055 412.901    0.5572219  0.5347964  0.5796474 
1012.9     222.3      -9999      -9999      344.618    7.727      1.865      1.583      1.734      1.794      1.842      1.843      1.812775   2.185925   1.640234   1.821956   2.653      1.639      0.301      0.09287204 0.01772548 0.117343   0.1435477  0.2122546  0.147019   1.647122   2.43448    1.843      0          0.104911   413.136    0.5565365  0.5291975  0.5838754 
1013       231.8      -9999      -9999      343.501    7.696      1.912      1.59       1.745      1.804      1.848      1.839      1.8324     2.170602   1.596989   1.749185   2.623      1.638      0.306      0.09175353 0.01179957 0.1216506  0.1418104  0.2115861  0.1401703  1.690126   2.4436     1.839      0          0.09810813 413.659    0.5586345  0.5236573  0.5936118 
1013.1     234.2      -9999      -9999      339.89     7.847      1.922      1.591      1.737      1.805      1.837      1.823      1.829377   2.24287    1.621019   1.678273   2.569      1.633      0.313      0.0852906  0.00607201 0.11987    0.1299298  0.2108309  0.1064013  1.474838   2.44332    1.823      0          0.06738422 414.866    0.5852425  0.5536181  0.6168668 
1013.2     237.4      -9999      -9999      336.69     8.109      1.924      1.561      1.692      1.774      1.808      1.795      1.796985   2.164145   1.664159   1.603693   2.52       1.628      0.321      0.07951487 0.0102758  0.114367   0.1139018  0.2138325  0.08316993 1.165874   2.42116    1.795      0          0.04477276 416.173    0.6261606  0.6093937  0.6429275 
1013.3     235.3      -9999      -9999      336.201    8.38       1.899      1.504      1.639      1.722      1.771      1.766      1.738385   2.03592    1.61584    1.587269   2.518      1.62       0.321      0.0773683  0.02760427 0.1024322  0.1020684  0.2194439  0.07589386 0.9142814  2.37884    1.766      0          0.04376255 416.608    0.6623268  0.6729868  0.6516668 
1013.4     246        -9999      -9999      340.884    8.651      1.975      1.476      1.605      1.684      1.741      1.737      1.714291   2          1.520397   1.683026   2.541      1.612      0.318      0.07597742 0.04647246 0.08675817 0.09470164 0.2262915  0.07152276 0.7169812  2.33312    1.737      0          0.04895823 416.935    0.7007328  0.7432161  0.6582494 
1013.5     242.7      -9999      -9999      348.085    8.708      2.052      1.46       1.564      1.644      1.707      1.713      1.660724   2          1.535286   1.742277   2.576      1.603      0.312      0.08021672 0.0645263  0.07753853 0.09858533 0.2326237  0.08569714 0.680263   2.29936    1.713      0          0.07697137 417.107    0.7104893  0.7593426  0.6616361 
1013.6     243.8      -9999      -9999      353.057    8.738      2.063      1.378      1.507      1.603      1.699      1.705      1.602597   2          1.580135   1.778162   2.608      1.592      0.308      0.07797739 0.06161148 0.07126604 0.1010546  0.2318615  0.07789122 0.6611278  2.30168    1.705      0          0.06367437 417.349    0.7173756  0.7682413  0.66651   
1013.7     238.3      -9999      -9999      353.795    8.703      1.949      1.363      1.518      1.629      1.723      1.715      1.633069   2.020572   1.616136   1.760762   2.628      1.586      0.305      0.07277033 0.04493167 0.07000069 0.1033786  0.2255269  0.06237938 0.6808092  2.33148    1.715      0          0.0264456  417.294    0.7121192  0.7590939  0.6651445 
1013.8     234.1      -9999      -9999      350.929    8.663      1.943      1.432      1.585      1.692      1.754      1.728      1.73955    2.13418    1.67153    1.795842   2.646      1.586      0.302      0.06360051 0.01850194 0.06933959 0.10296    0.2148367  0.04218847 0.7042039  2.37824    1.728      0          0          417.124    0.7050315  0.7486932  0.6613697 
1013.9     237.9      -9999      -9999      347.29     8.487      1.942      1.477      1.633      1.715      1.764      1.74       1.753628   2.24287    1.797527   1.838163   2.64       1.591      0.303      0.06909408 0.01434366 0.08216204 0.1107766  0.2126453  0.05332712 0.8221571  2.39844    1.74       0          0          415.882    0.669206   0.7028149  0.6355971 
1014       235.8      -9999      -9999      347.39     8.332      1.878      1.451      1.568      1.663      1.714      1.737      1.684514   2.185925   1.863195   1.788858   2.648      1.597      0.302      0.07851873 0.02815984 0.0890401  0.1183563  0.216949   0.07971049 0.9420889  2.3842     1.737      0          0.03367184 415.408    0.645333   0.6648034  0.6258625 
1014.1     239.2      -9999      -9999      352.79     8.289      1.98       1.353      1.481      1.571      1.665      1.721      1.593435   2.128577   1.866771   1.671064   2.678      1.605      0.298      0.08666556 0.04593023 0.08792686 0.1261396  0.2232193  0.1128274  0.9770687  2.35776    1.721      0          0.07980891 415.032    0.6365853  0.65498    0.6181905 
1014.2     232        -9999      -9999      360.957    8.276      1.964      1.318      1.443      1.562      1.663      1.733      1.564638   2.03592    1.858821   1.615073   2.73       1.614      0.291      0.09323012 0.06348483 0.081851   0.1343545  0.2291832  0.1492815  0.9866403  2.32948    1.733      0          0.1218464  414.89     0.6337849  0.6523779  0.6151919 
1014.3     231.3      -9999      -9999      367.368    8.496      2.04       1.381      1.546      1.647      1.718      1.775      1.656135   2.020572   1.932128   1.68216    2.785      1.624      0.283      0.0835954  0.05354294 0.06539334 0.1318499  0.2250462  0.09898006 0.8048333  2.3366     1.775      0          0.08692413 414.629    0.6594141  0.7089532  0.6098751 
1014.4     224.7      -9999      -9999      367.99     8.53       2.153      1.512      1.703      1.764      1.844      1.85       1.773658   2.13418    2.040152   1.820043   2.812      1.63       0.28       0.07713156 0.03652397 0.06244519 0.1324255  0.2185486  0.07513144 0.7747614  2.36508    1.85       0          0.06223331 414.05     0.659257   0.720063   0.5984509 
1014.5     221.8      -9999      -9999      360.712    8.305      2.181      1.595      1.786      1.852      1.906      1.912      1.863      2.263929   2.138476   1.95305    2.824      1.632      0.278      0.07245438 0.01035356 0.07091208 0.1360975  0.2070677  0.06154445 0.9392259  2.42052    1.912      0          0.02348473 413.589    0.6275392  0.6656302  0.589448  
1014.6     227.4      -9999      -9999      350.934    8.048      2.12       1.604      1.774      1.856      1.925      1.943      1.86599    2.3        2.181992   1.994545   2.812      1.63       0.28       0.06927019 -0.01362975 0.08381797 0.1376224  0.1967943  0.05372917 1.171505   2.4728     1.943      0          0          413.14     0.594491   0.608196   0.580786  
1014.7     226.7      -9999      -9999      342.946    7.959      2.164      1.612      1.754      1.851      1.919      1.949      1.87499    2.278606   2.152521   1.966398   2.782      1.627      0.284      0.06935334 -0.02073487 0.09343184 0.1353631  0.1932283  0.05392004 1.258241   2.49096    1.949      0          0          412.257    0.5774793  0.590714   0.5642445 
1014.8     224.3      -9999      -9999      338.057    7.985      2.204      1.634      1.758      1.856      1.918      1.952      1.868962   2.185925   2.072269   1.995246   2.767      1.625      0.286      0.07104999 -0.01569682 0.09690672 0.1319401  0.1939662  0.05796638 1.219883   2.4842     1.952      0          0          411.356    0.57301    0.598229   0.5477909 
1014.9     223.7      -9999      -9999      333.157    7.7        2.221      1.654      1.784      1.872      1.924      1.949      1.8926     2.170602   2.0085     2.098742   2.771      1.625      0.285      0.08467675 0.008188255 0.1076869  0.1381551  0.1999355  0.1036518  1.559981   2.45752    1.949      0          0.06473615 410.558    0.5373124  0.5410745  0.5335504 
