~Version
 VERS              .         2.0                           : CWLS LOG ASCII STANDARD - VERSION 2.0
 WRAP              .         NO                            : ONE LINE PER DEPTH STEP
 DLM               .         SPACE                         : DELIMITING CHARACTER(SPACE TAB OR COMMA)
~Well Information
#_______________________________________________________________________________
#
#PARAMETER_NAME    .UNIT     VALUE                         : DESCRIPTION
#_______________________________________________________________________________
STRT               .M        218.7                         : First reference value
STOP               .M        1168.5                        : Last reference value
STEP               .M        0.1                           : Step increment
NULL               .         -9999                         : Missing value
COMP               .                                       : Company
WELL               .         9671                          : Well name
FLD                .         УЗЕНЬ                         : Field
LOC                .                                       : Location
CNTY               .                                       : County
STAT               .                                       : State
CTRY               .                                       : Country
SRVC               .         AO "UPGF"                     : Service Company
DATE               .         8/2/2018                      : Date
API                .                                       : API number
Block              .         6а                            : 
Cartographic_reference_system .         GCS_WGS_1984                  : ESRI,PE_10_3_1- <?xml version="1.0" encoding="utf-16"?><ILateBoundCoordinateReferenceSystem name="GCS_WGS_1984"><AuthorityCode>EPSG,4326</AuthorityCode></ILateBoundCoordinateReferenceSystem>
Category           .         Нефтяная                      : 
Condition          .         В работе                      : 
Date               .         03.03.2018                    : 
EREF               .m        77.812                        : 
GRP                .                                       : Group name
HZCS               .GCS_WGS_1984 WGS_1984_EASE-Grid_2.0_Global : ESRI,PE_10_3_1- <?xml version="1.0" encoding="utf-16"?><ILateBoundCoordinateReferenceSystem name="WGS_1984_EASE-Grid_2.0_Global"><AuthorityCode>EPSG,6933</AuthorityCode></ILateBoundCoordinateReferenceSystem>
ISS                .                                       : Well surUveys
Interpretator      .         Ким С.В.                      : 
LATI               .dega     0.6667519455                  : GCS_WGS_1984
LONG               .dega     0.4550595161                  : GCS_WGS_1984
Mud                .         калий-хлор                    : 
Mud_density        .         1.34                          : 
Mud_resistivity    .         0.03                          : 
NGDU               .         НГДУ-2                        : 
SPDA               .         08/02/2018                    : 
TIME               .                                       : LOG TIME
Viscosity          .         45                            : 
X                  .m        43907.00                      : 
Y                  .m        85057.87                      : 
YEAR               .         2018                          : 
~Parameter Information Block
#_______________________________________________________________________________
#
#PARAMETER_NAME    .UNIT     VALUE                         : DESCRIPTION
#_______________________________________________________________________________
SET                .         LQC_KAZNIPI_Petrel            : 
TLFamily_CALI      .         Caliper                       : 
TLFamily_COLL      .         Net Reservoir Flag            : 
TLFamily_CSAT      .         Fluid Code                    : 
TLFamily_DEPT      .         Measured Depth                : 
TLFamily_DT        .         Compressional Slowness        : 
TLFamily_GR        .         Russian Gamma Ray             : 
TLFamily_GZ3       .         Gradient 225                  : 
TLFamily_IK1       .         Resistivity 05                : 
TLFamily_IK2       .         Resistivity 07                : 
TLFamily_IK3       .         Resistivity 10                : 
TLFamily_IK4       .         Resistivity 14                : 
TLFamily_IK5       .         Resistivity 20                : 
TLFamily_LLS       .         Lateral Log Resistivity       : 
TLFamily_MINV      .         Micro Gradient Resistivity    : 
TLFamily_MNOR      .         Micro Resistivity             : 
TLFamily_PHIE      .         Effective Porosity            : 
TLFamily_PHIED     .         Effective Porosity            : 
TLFamily_PHIEN     .         Effective Porosity            : 
TLFamily_PHIES     .         Effective Porosity            : 
TLFamily_PHIT      .         Porosity                      : 
TLFamily_PRMB      .         Permeability                  : 
TLFamily_PRMB_DGR  .         Permeability                  : 
TLFamily_RHOB      .         Bulk Density                  : 
TLFamily_RT        .         Formation Resistivity         : 
TLFamily_SOIL_ARCHIE .         Oil Saturation                : 
TLFamily_SOIL_DW   .         Oil Saturation                : 
TLFamily_SP        .         Spontaneous Potential         : 
TLFamily_VSH_FIN   .         Shale Volume                  : 
TLFamily_VSH_GR    .         Shale Volume                  : 
TLFamily_VSH_SP    .         Shale Volume                  : 
~Curve Information
#_______________________________________________________________________________
#
#LOGNAME           .UNIT     LOG_ID                        : DESCRIPTION
#_______________________________________________________________________________
DEPT               .M                                      : Depth curve 
CALI               .M                                      : Кавернометрия 
COLL               .unitless                               : Описание 
CSAT               .unitless                               : Описание 
DT                 .мкс/м                                  : 1 ДельтаТ - Волна по 
GR                 .uR/h                                   : ГК 
GZ3                .Ohmm                                   : A2.0M0.5N 
IK1                .Ohmm                                   : И0.10И0.40 
IK2                .Ohmm                                   : И0.14И0.56 
IK3                .Ohmm                                   : И0.20И0.8 
IK4                .Ohmm                                   : И0.28И1.12 
IK5                .Ohmm                                   : И0.40И1.60 
LLS                .Ohmm                                   : БК, Омм 
MINV               .Ohmm                                   : МГЗ, Омм 
MNOR               .Ohmm                                   : МПЗ, Омм 
PHIE               .v/v                                    : Описание 
PHIED              .v/v                                    :  
PHIEN              .v/v                                    : Porosity by NL 
PHIES              .v/v                                    :  
PHIT               .v/v                                    : Описание 
PRMB               .мД                                     :  
PRMB_DGR           .мД                                     :  
RHOB               .G/CM3                                  : ГГКП 
RT                 .ohmm                                   : Description 
SOIL_ARCHIE        .v/v                                    :  
SOIL_DW            .v/v                                    :  
SP                 .мВ                                     : ПС 
VSH_FIN            .v/v                                    : Описание 
VSH_GR             .v/v                                    : Shale volume 
VSH_SP             .v/v                                    : Shale Volume 
~Ascii
# ...
909.6      0.218808   1          3          258.4673   4.65       2.982      0.974      1.368      1.829      2.295      2.308      1.77       0.59       0.75       0.1869758  0.1814371  -9999      0.1925145  -9999      8.135858   605.0457   2.367      2.308      0.6700702  -9999      229.18     0.04744793 0.04744793 0.8       
909.7000000000001 0.218808   1          3          258.1106   4.461      2.985      0.958      1.366      1.885      2.385      2.375      1.8        0.57       0.76       0.1882935  0.1832335  -9999      0.1933536  -9999      8.606198   777.9025   2.364      2.375      0.6764562  -9999      229.278    0.04282063 0.04282063 0.8       
909.8      0.219408   1          3          256.6526   4.688      2.998      0.975      1.407      1.961      2.486      2.458      1.84       0.54       0.75       0.1864537  0.1838324  -9999      0.1890749  -9999      7.956689   575.2349   2.363      2.458      0.6788952  -9999      229.251    0.04843701 0.04843701 0.8       
909.9      0.218808   1          3          257.3678   4.651      3.057      0.993      1.463      2.041      2.581      2.564      1.8        0.54       0.76       0.1905173  0.1904192  -9999      0.1906155  -9999      9.4624     604.2418   2.352      2.564      0.6910508  -9999      229.084    0.0474737  0.0474737  0.8       
910        0.218908   1          3          258.0415   5.016      2.815      1.05       1.554      2.161      2.681      2.661      1.82       0.56       0.78       0.1855743  0.1826347  -9999      0.1885139  -9999      7.663805   371.9151   2.365      2.661      0.6893562  -9999      228.969    0.05787836 0.05787836 0.8       
910.1      0.219008   1          3          258.358    5.194      3.027      1.095      1.636      2.26       2.762      2.742      1.9        0.57       0.8        0.1756438  0.1640719  -9999      0.1872157  -9999      5.017735   293.5343   2.396      2.742      0.6786677  -9999      228.536    0.06375097 0.06375097 0.8       
910.2000000000001 0.219108   1          3          258.7608   4.911      3.031      1.148      1.683      2.299      2.791      2.794      2.05       0.54       0.81       0.1735197  0.1562875  -9999      0.1907519  -9999      4.583145   427.6372   2.409      2.794      0.6780949  -9999      228.308    0.05467116 0.05467116 0.8       
910.3      0.218208   1          3          259.352    4.758      3.12       1.176      1.665      2.27       2.769      2.808      2.1        0.49       0.8        0.1791977  0.1652694  -9999      0.1931259  -9999      5.838935   524.1122   2.394      2.808      0.6877301  -9999      227.335    0.05031327 0.05031327 0.8       
910.4      0.218208   1          3          259.4513   4.529      3.053      1.152      1.634      2.225      2.746      2.818      1.97       0.48       0.8        0.1867911  0.1784431  -9999      0.195139   -9999      8.07201    710.6553   2.372      2.818      0.6993177  -9999      226.669    0.04443106 0.04443106 0.8       
910.5      0.218208   1          3          263.1429   4.274      2.972      1.162      1.65       2.231      2.749      2.825      2.03       0.52       0.84       0.1904851  0.1778444  -9999      0.2031258  -9999      9.449385   997.4866   2.373      2.825      0.7047465  -9999      226.016    0.03868659 0.03868659 0.8       
910.6      0.217808   1          3          264.6308   4.454      2.948      1.188      1.633      2.209      2.756      2.815      2.13       0.59       0.88       0.1862943  0.1682635  -9999      0.2043251  -9999      7.902786   785.1764   2.389      2.815      0.6984688  -9999      225.308    0.0426582  0.0426582  0.8       
910.7000000000001 0.218308   1          3          269.1648   4.723      2.827      1.101      1.507      2.086      2.72       2.816      1.84       0.59       0.87       0.178704   0.1479041  -9999      0.2095038  -9999      5.717274   549.0789   2.423      2.816      0.6873964  -9999      224.977    0.04936623 0.04936623 0.8       
910.8      0.218008   1          3          269.6277   4.376      3.163      0.997      1.383      2.016      2.741      2.866      1.68       0.59       0.92       0.162733   0.1125748  -9999      0.2128911  -9999      2.893126   870.9794   2.482      2.866      0.6636288  -9999      224.556    0.04088942 0.04088942 0.8       
910.9      0.217608   1          3          270.9709   4.323      3.378      1.049      1.508      2.154      2.844      2.934      2.25       0.67       1.08       0.145703   0.07604791 -9999      0.2153581  -9999      1.399366   934.5713   2.543      2.934      0.6336875  -9999      224.571    0.03972959 0.03972959 0.8       
911        0.217908   1          3          267.8919   4.429      3.592      1.127      1.576      2.267      2.872      2.935      3.05       0.69       1.05       0.1372192  0.06467064 -9999      0.2097677  -9999      0.9745191  811.7147   2.562      2.935      0.6141009  -9999      224.55     0.0420831  0.0420831  0.8       
911.1      0.218708   1          3          267.5488   4.39       3.898      1.024      1.33       2.013      2.697      2.872      2.51       0.62       0.92       0.1484609  0.08742519 -9999      0.2094966  -9999      1.574034   854.9166   2.524      2.872      0.6359912  -9999      224.354    0.0412014  0.0412014  0.8       
911.2000000000001 0.218708   1          3          263.3526   4.471      3.922      0.92       1.181      1.801      2.496      2.74       2.06       0.62       0.88       0.1630274  0.1239521  -9999      0.2021027  -9999      2.929686   767.6277   2.463      2.74       0.6569971  -9999      224.309    0.04305375 0.04305375 0.8       
911.3      0.218608   1          3          263.4229   4.46       3.836      0.9260000000000001 1.2        1.833      2.458      2.61       1.92       0.67       0.92       0.1733052  0.1443114  -9999      0.2022991  -9999      4.54142    778.9374   2.429      2.61       0.6672798  -9999      224.423    0.04279739 0.04279739 0.8       
911.4      0.219208   1          3          261.2971   4.79       3.829      1.033      1.355      1.967      2.526      2.521      2.19       0.76       1          0.1657312  0.1353293  -9999      0.1961331  -9999      3.287779   502.2803   2.444      2.521      0.6483968  -9999      224.6      0.05119503 0.05119503 0.8       
911.5      0.218108   1          3          261.3782   4.562      3.807      1.127      1.459      1.991      2.48       2.411      2.68       0.81       1          0.1562545  0.1143712  -9999      0.1981378  -9999      2.194678   680.148    2.479      2.411      0.6220652  -9999      224.647    0.04523429 0.04523429 0.8       
911.6      0.218508   1          3          262.0225   4.143      3.8        1.033      1.293      1.715      2.209      2.251      2.38       0.72       0.85       0.163924   0.1257485  -9999      0.2020995  -9999      3.043886   1187.277   2.46       2.251      0.6256425  -9999      225.088    0.03603064 0.03603064 0.8       
911.7000000000001 0.218808   1          3          262.6508   4.181      3.706      0.868      1.102      1.46       1.929      2.053      1.87       0.57       0.71       0.1831908  0.163473   -9999      0.2029085  -9999      6.923018   1128.78    2.397      2.053      0.6451721  -9999      225.385    0.03678172 0.03678172 0.8       
911.8      0.216308   1          3          265.2491   4.409      3.466      0.822      1.059      1.37       1.765      1.875      1.71       0.53       0.65       0.2061211  0.2065868  -9999      0.2056554  -9999      18.40862   833.5895   2.325      1.875      0.6658883  -9999      225.707    0.04162861 0.04162861 0.8       
911.9      0.217008   1          3          265.6134   4.523      3.248      0.831      1.063      1.346      1.691      1.771      1.59       0.5        0.62       0.2203716  0.2353294  -9999      0.2054138  -9999      33.80448   716.3476   2.277      1.771      0.6762313  -9999      226.047    0.04428656 0.04428656 0.8       
912        0.219108   1          3          268.5398   4.292      3.097      0.78       1.03       1.32       1.664      1.743      1.4        0.49       0.6        0.2304228  0.2491018  -9999      0.2117438  -9999      51.89766   973.8975   2.254      1.743      0.6862293  -9999      226.351    0.0390665  0.0390665  0.8       
