~Version
 VERS              .         2.0                           : CWLS LOG ASCII STANDARD - VERSION 2.0
 WRAP              .         NO                            : ONE LINE PER DEPTH STEP
 DLM               .         SPACE                         : DELIMITING CHARACTER(SPACE TAB OR COMMA)
~Well Information
#_______________________________________________________________________________
#
#PARAMETER_NAME    .UNIT     VALUE                         : DESCRIPTION
#_______________________________________________________________________________
STRT               .M        218.7                         : First reference value
STOP               .M        1168.5                        : Last reference value
STEP               .M        0.1                           : Step increment
NULL               .         -9999                         : Missing value
COMP               .                                       : Company
WELL               .         9671                          : Well name
FLD                .         УЗЕНЬ                         : Field
LOC                .                                       : Location
CNTY               .                                       : County
STAT               .                                       : State
CTRY               .                                       : Country
SRVC               .         AO "UPGF"                     : Service Company
DATE               .         8/2/2018                      : Date
API                .                                       : API number
Block              .         6а                            : 
Cartographic_reference_system .         GCS_WGS_1984                  : ESRI,PE_10_3_1- <?xml version="1.0" encoding="utf-16"?><ILateBoundCoordinateReferenceSystem name="GCS_WGS_1984"><AuthorityCode>EPSG,4326</AuthorityCode></ILateBoundCoordinateReferenceSystem>
Category           .         Нефтяная                      : 
Condition          .         В работе                      : 
Date               .         03.03.2018                    : 
EREF               .m        77.812                        : 
GRP                .                                       : Group name
HZCS               .GCS_WGS_1984 WGS_1984_EASE-Grid_2.0_Global : ESRI,PE_10_3_1- <?xml version="1.0" encoding="utf-16"?><ILateBoundCoordinateReferenceSystem name="WGS_1984_EASE-Grid_2.0_Global"><AuthorityCode>EPSG,6933</AuthorityCode></ILateBoundCoordinateReferenceSystem>
ISS                .                                       : Well surUveys
Interpretator      .         Ким С.В.                      : 
LATI               .dega     0.6667519455                  : GCS_WGS_1984
LONG               .dega     0.4550595161                  : GCS_WGS_1984
Mud                .         калий-хлор                    : 
Mud_density        .         1.34                          : 
Mud_resistivity    .         0.03                          : 
NGDU               .         НГДУ-2                        : 
SPDA               .         08/02/2018                    : 
TIME               .                                       : LOG TIME
Viscosity          .         45                            : 
X                  .m        43907.00                      : 
Y                  .m        85057.87                      : 
YEAR               .         2018                          : 
~Parameter Information Block
#_______________________________________________________________________________
#
#PARAMETER_NAME    .UNIT     VALUE                         : DESCRIPTION
#_______________________________________________________________________________
SET                .         LQC_KAZNIPI_Petrel            : 
TLFamily_CALI      .         Caliper                       : 
TLFamily_COLL      .         Net Reservoir Flag            : 
TLFamily_CSAT      .         Fluid Code                    : 
TLFamily_DEPT      .         Measured Depth                : 
TLFamily_DT        .         Compressional Slowness        : 
TLFamily_GR        .         Russian Gamma Ray             : 
TLFamily_GZ3       .         Gradient 225                  : 
TLFamily_IK1       .         Resistivity 05                : 
TLFamily_IK2       .         Resistivity 07                : 
TLFamily_IK3       .         Resistivity 10                : 
TLFamily_IK4       .         Resistivity 14                : 
TLFamily_IK5       .         Resistivity 20                : 
TLFamily_LLS       .         Lateral Log Resistivity       : 
TLFamily_MINV      .         Micro Gradient Resistivity    : 
TLFamily_MNOR      .         Micro Resistivity             : 
TLFamily_PHIE      .         Effective Porosity            : 
TLFamily_PHIED     .         Effective Porosity            : 
TLFamily_PHIEN     .         Effective Porosity            : 
TLFamily_PHIES     .         Effective Porosity            : 
TLFamily_PHIT      .         Porosity                      : 
TLFamily_PRMB      .         Permeability                  : 
TLFamily_PRMB_DGR  .         Permeability                  : 
TLFamily_RHOB      .         Bulk Density                  : 
TLFamily_RT        .         Formation Resistivity         : 
TLFamily_SOIL_ARCHIE .         Oil Saturation                : 
TLFamily_SOIL_DW   .         Oil Saturation                : 
TLFamily_SP        .         Spontaneous Potential         : 
TLFamily_VSH_FIN   .         Shale Volume                  : 
TLFamily_VSH_GR    .         Shale Volume                  : 
TLFamily_VSH_SP    .         Shale Volume                  : 
~Curve Information
#_______________________________________________________________________________
#
#LOGNAME           .UNIT     LOG_ID                        : DESCRIPTION
#_______________________________________________________________________________
DEPT               .M                                      : Depth curve 
CALI               .M                                      : Кавернометрия 
COLL               .unitless                               : Описание 
CSAT               .unitless                               : Описание 
DT                 .мкс/м                                  : 1 ДельтаТ - Волна по 
GR                 .uR/h                                   : ГК 
GZ3                .Ohmm                                   : A2.0M0.5N 
IK1                .Ohmm                                   : И0.10И0.40 
IK2                .Ohmm                                   : И0.14И0.56 
IK3                .Ohmm                                   : И0.20И0.8 
IK4                .Ohmm                                   : И0.28И1.12 
IK5                .Ohmm                                   : И0.40И1.60 
LLS                .Ohmm                                   : БК, Омм 
MINV               .Ohmm                                   : МГЗ, Омм 
MNOR               .Ohmm                                   : МПЗ, Омм 
PHIE               .v/v                                    : Описание 
PHIED              .v/v                                    :  
PHIEN              .v/v                                    : Porosity by NL 
PHIES              .v/v                                    :  
PHIT               .v/v                                    : Описание 
PRMB               .мД                                     :  
PRMB_DGR           .мД                                     :  
RHOB               .G/CM3                                  : ГГКП 
RT                 .ohmm                                   : Description 
SOIL_ARCHIE        .v/v                                    :  
SOIL_DW            .v/v                                    :  
SP                 .мВ                                     : ПС 
VSH_FIN            .v/v                                    : Описание 
VSH_GR             .v/v                                    : Shale volume 
VSH_SP             .v/v                                    : Shale Volume 
~Ascii
# ...
1162.9     0.219108   -9999      -9999      -9999      9.342      -9999      22.32700000000001 9.334      11.47      6.566000000000001 3.486      3.67       0.16       0.34       -9999      0.2155689  0.222      -9999      -9999      -9999      -9999      2.31       3.486      -9999      -9999      -9999      0.09361643 0.09361643 -9999     
1163       0.217008   -9999      -9999      -9999      9.694      -9999      22.298     9.339      11.508     6.557      3.241000000000001 3.43       0.12       0.32       -9999      0.2383233  0.214      -9999      -9999      -9999      -9999      2.272      3.241      -9999      -9999      -9999      0.105305   0.105305   -9999     
1163.1     0.217008   -9999      -9999      -9999      9.59       -9999      22.337     9.331      11.498     6.56       3.088      2.95       0.11       0.32       -9999      0.2550898  0.234      -9999      -9999      -9999      -9999      2.244      3.088      -9999      -9999      -9999      0.1017073  0.1017073  -9999     
1163.2     0.219008   -9999      -9999      -9999      9.38       -9999      22.377     9.356999999999998 11.434     6.566000000000001 3.016      2.22       0.11       0.31       -9999      0.2652695  0.228      -9999      -9999      -9999      -9999      2.227      3.016      -9999      -9999      -9999      0.09481308 0.09481308 -9999     
1163.3     0.216808   -9999      -9999      -9999      9.703      -9999      22.347     9.384999999999998 11.438     6.562      3.003      1.9        0.11       0.32       -9999      0.2604791  0.299      -9999      -9999      -9999      -9999      2.235      3.003      -9999      -9999      -9999      0.1056222  0.1056222  -9999     
1163.4     0.218808   -9999      -9999      -9999      9.195      -9999      22.298     9.367000000000001 11.47      6.571999999999999 3.006      2.01       0.11       0.31       -9999      0.2538922  0.249      -9999      -9999      -9999      -9999      2.246      3.006      -9999      -9999      -9999      0.08912782 0.08912782 -9999     
1163.5     0.213708   -9999      -9999      -9999      9.195      -9999      22.337     9.343999999999999 11.466     6.581000000000001 3.009      2.06       0.11       0.32       -9999      0.2473054  0.196      -9999      -9999      -9999      -9999      2.257      3.009      -9999      -9999      -9999      0.08912782 0.08912782 -9999     
1163.6     0.216508   -9999      -9999      -9999      8.771      -9999      22.288     9.353999999999999 11.448     6.577000000000001 3.015      2.06       0.11       0.31       -9999      0.2473054  0.228      -9999      -9999      -9999      -9999      2.257      3.015      -9999      -9999      -9999      0.07735081 0.07735081 -9999     
1163.7     0.213608   -9999      -9999      -9999      8.955      -9999      22.22800000000001 9.349      11.463     6.568999999999999 3.016      2.07       0.11       0.32       -9999      0.2502993  0.224      -9999      -9999      -9999      -9999      2.252      3.016      -9999      -9999      -9999      0.08225733 0.08225733 -9999     
1163.8     0.160108   -9999      -9999      -9999      9.423      -9999      22.317     9.308      11.466     6.566000000000001 3.01       2.07       0.11       0.32       -9999      0.2473054  0.218      -9999      -9999      -9999      -9999      2.257      3.01       -9999      -9999      -9999      0.09618563 0.09618563 -9999     
1163.9     0.104808   -9999      -9999      -9999      9.17       -9999      22.258     9.294999999999998 11.459     6.566000000000001 3.011      2.07       0.12       0.32       -9999      0.2401197  0.258      -9999      -9999      -9999      -9999      2.269      3.011      -9999      -9999      -9999      0.08838617 0.08838617 -9999     
1164       0.095708   -9999      -9999      -9999      9.268      -9999      22.179     9.324      11.448     6.571000000000001 3.012      2.07       0.12       0.32       -9999      0.2449102  0.246      -9999      -9999      -9999      -9999      2.261      3.012      -9999      -9999      -9999      0.09132929 0.09132929 -9999     
1164.1     0.095408   -9999      -9999      -9999      9.212      -9999      22.209     9.324      11.473     6.574000000000001 3.01       2.07       0.11       0.32       -9999      0.251497   -9999      -9999      -9999      -9999      -9999      2.25       3.01       -9999      -9999      -9999      0.08963571 0.08963571 -9999     
1164.2     0.095508   -9999      -9999      -9999      8.711      -9999      22.258     9.313000000000001 11.473     6.574000000000001 3.012      2.06       0.11       0.32       -9999      0.2544911  -9999      -9999      -9999      -9999      -9999      2.245      3.012      -9999      -9999      -9999      0.07581502 0.07581502 -9999     
1164.3     0.097208   -9999      -9999      -9999      8.799      -9999      22.248     9.336      11.459     6.574000000000001 3.013      2.08       0.11       0.32       -9999      0.2550898  -9999      -9999      -9999      -9999      -9999      2.244      3.013      -9999      -9999      -9999      0.07807813 0.07807813 -9999     
1164.4     0.09750801 -9999      -9999      -9999      9.344      -9999      22.22800000000001 9.351999999999999 11.47      6.583      3.011      2.07       0.11       0.32       -9999      0.2550898  -9999      -9999      -9999      -9999      -9999      2.244      3.011      -9999      -9999      -9999      0.09367903 0.09367903 -9999     
1164.5     0.09730799 -9999      -9999      -9999      9.334      -9999      22.169     9.321      11.477     6.589      3.013      2.06       0.11       0.32       -9999      0.251497   -9999      -9999      -9999      -9999      -9999      2.25       3.013      -9999      -9999      -9999      0.09336643 0.09336643 -9999     
1164.6     0.096308   -9999      -9999      -9999      8.965      -9999      22.13      9.315999999999999 11.434     6.584      3.016      2.08       0.11       0.32       -9999      0.2473054  -9999      -9999      -9999      -9999      -9999      2.257      3.016      -9999      -9999      -9999      0.08253273 0.08253273 -9999     
1164.7     0.093108   -9999      -9999      -9999      9.191      -9999      22.072     9.342000000000002 11.438     6.595      3.016      2.08       0.11       0.32       -9999      0.2610779  -9999      -9999      -9999      -9999      -9999      2.234      3.016      -9999      -9999      -9999      0.08900875 0.08900875 -9999     
1164.8     0.094208   -9999      -9999      -9999      8.999      -9999      22.091     9.343999999999999 11.47      6.604      3.019      2.08       0.11       0.32       -9999      0.2826348  -9999      -9999      -9999      -9999      -9999      2.198      3.019      -9999      -9999      -9999      0.08347601 0.08347601 -9999     
1164.9     0.093908   -9999      -9999      -9999      8.957      -9999      22.219     9.339      11.466     6.609000000000001 3.019      2.07       0.1        0.31       -9999      0.2844312  -9999      -9999      -9999      -9999      -9999      2.195      3.019      -9999      -9999      -9999      0.08231233 0.08231233 -9999     
1165       0.098708   -9999      -9999      -9999      8.911      -9999      22.307     9.331      11.47      6.607      3.016      2.06       0.1        0.31       -9999      0.263473   -9999      -9999      -9999      -9999      -9999      2.23       3.016      -9999      -9999      -9999      0.08105645 0.08105645 -9999     
1165.1     0.100508   -9999      -9999      -9999      9.22       -9999      22.209     9.334      11.508     6.613000000000001 3.019      2.07       0.1        0.31       -9999      0.2485029  -9999      -9999      -9999      -9999      -9999      2.255      3.019      -9999      -9999      -9999      0.08987573 0.08987573 -9999     
1165.2     0.101308   -9999      -9999      -9999      9.184      -9999      22.072     9.339      11.519     6.628      3.02       -9999      0.1        0.31       -9999      0.251497   -9999      -9999      -9999      -9999      -9999      2.25       3.02       -9999      -9999      -9999      0.08880074 0.08880074 -9999     
