~Version
 VERS              .         2.0                           : CWLS LOG ASCII STANDARD - VERSION 2.0
 WRAP              .         NO                            : ONE LINE PER DEPTH STEP
 DLM               .         SPACE                         : DELIMITING CHARACTER(SPACE TAB OR COMMA)
~Well Information
#_______________________________________________________________________________
#
#PARAMETER_NAME    .UNIT     VALUE                         : DESCRIPTION
#_______________________________________________________________________________
STRT               .M        218.7                         : First reference value
STOP               .M        1168.5                        : Last reference value
STEP               .M        0.1                           : Step increment
NULL               .         -9999                         : Missing value
COMP               .                                       : Company
WELL               .         9671                          : Well name
FLD                .         УЗЕНЬ                         : Field
LOC                .                                       : Location
CNTY               .                                       : County
STAT               .                                       : State
CTRY               .                                       : Country
SRVC               .         AO "UPGF"                     : Service Company
DATE               .         8/2/2018                      : Date
API                .                                       : API number
Block              .         6а                            : 
Cartographic_reference_system .         GCS_WGS_1984                  : ESRI,PE_10_3_1- <?xml version="1.0" encoding="utf-16"?><ILateBoundCoordinateReferenceSystem name="GCS_WGS_1984"><AuthorityCode>EPSG,4326</AuthorityCode></ILateBoundCoordinateReferenceSystem>
Category           .         Нефтяная                      : 
Condition          .         В работе                      : 
Date               .         03.03.2018                    : 
EREF               .m        77.812                        : 
GRP                .                                       : Group name
HZCS               .GCS_WGS_1984 WGS_1984_EASE-Grid_2.0_Global : ESRI,PE_10_3_1- <?xml version="1.0" encoding="utf-16"?><ILateBoundCoordinateReferenceSystem name="WGS_1984_EASE-Grid_2.0_Global"><AuthorityCode>EPSG,6933</AuthorityCode></ILateBoundCoordinateReferenceSystem>
ISS                .                                       : Well surUveys
Interpretator      .         Ким С.В.                      : 
LATI               .dega     0.6667519455                  : GCS_WGS_1984
LONG               .dega     0.4550595161                  : GCS_WGS_1984
Mud                .         калий-хлор                    : 
Mud_density        .         1.34                          : 
Mud_resistivity    .         0.03                          : 
NGDU               .         НГДУ-2                        : 
SPDA               .         08/02/2018                    : 
TIME               .                                       : LOG TIME
Viscosity          .         45                            : 
X                  .m        43907.00                      : 
Y                  .m        85057.87                      : 
YEAR               .         2018                          : 
~Parameter Information Block
#_______________________________________________________________________________
#
#PARAMETER_NAME    .UNIT     VALUE                         : DESCRIPTION
#_______________________________________________________________________________
SET                .         LQC_KAZNIPI_Petrel            : 
TLFamily_CALI      .         Caliper                       : 
TLFamily_COLL      .         Net Reservoir Flag            : 
TLFamily_CSAT      .         Fluid Code                    : 
TLFamily_DEPT      .         Measured Depth                : 
TLFamily_DT        .         Compressional Slowness        : 
TLFamily_GR        .         Russian Gamma Ray             : 
TLFamily_GZ3       .         Gradient 225                  : 
TLFamily_IK1       .         Resistivity 05                : 
TLFamily_IK2       .         Resistivity 07                : 
TLFamily_IK3       .         Resistivity 10                : 
TLFamily_IK4       .         Resistivity 14                : 
TLFamily_IK5       .         Resistivity 20                : 
TLFamily_LLS       .         Lateral Log Resistivity       : 
TLFamily_MINV      .         Micro Gradient Resistivity    : 
TLFamily_MNOR      .         Micro Resistivity             : 
TLFamily_PHIE      .         Effective Porosity            : 
TLFamily_PHIED     .         Effective Porosity            : 
TLFamily_PHIEN     .         Effective Porosity            : 
TLFamily_PHIES     .         Effective Porosity            : 
TLFamily_PHIT      .         Porosity                      : 
TLFamily_PRMB      .         Permeability                  : 
TLFamily_PRMB_DGR  .         Permeability                  : 
TLFamily_RHOB      .         Bulk Density                  : 
TLFamily_RT        .         Formation Resistivity         : 
TLFamily_SOIL_ARCHIE .         Oil Saturation                : 
TLFamily_SOIL_DW   .         Oil Saturation                : 
TLFamily_SP        .         Spontaneous Potential         : 
TLFamily_VSH_FIN   .         Shale Volume                  : 
TLFamily_VSH_GR    .         Shale Volume                  : 
TLFamily_VSH_SP    .         Shale Volume                  : 
~Curve Information
#_______________________________________________________________________________
#
#LOGNAME           .UNIT     LOG_ID                        : DESCRIPTION
#_______________________________________________________________________________
DEPT               .M                                      : Depth curve 
CALI               .M                                      : Кавернометрия 
COLL               .unitless                               : Описание 
CSAT               .unitless                               : Описание 
DT                 .мкс/м                                  : 1 ДельтаТ - Волна по 
GR                 .uR/h                                   : ГК 
GZ3                .Ohmm                                   : A2.0M0.5N 
IK1                .Ohmm                                   : И0.10И0.40 
IK2                .Ohmm                                   : И0.14И0.56 
IK3                .Ohmm                                   : И0.20И0.8 
IK4                .Ohmm                                   : И0.28И1.12 
IK5                .Ohmm                                   : И0.40И1.60 
LLS                .Ohmm                                   : БК, Омм 
MINV               .Ohmm                                   : МГЗ, Омм 
MNOR               .Ohmm                                   : МПЗ, Омм 
PHIE               .v/v                                    : Описание 
PHIED              .v/v                                    :  
PHIEN              .v/v                                    : Porosity by NL 
PHIES              .v/v                                    :  
PHIT               .v/v                                    : Описание 
PRMB               .мД                                     :  
PRMB_DGR           .мД                                     :  
RHOB               .G/CM3                                  : ГГКП 
RT                 .ohmm                                   : Description 
SOIL_ARCHIE        .v/v                                    :  
SOIL_DW            .v/v                                    :  
SP                 .мВ                                     : ПС 
VSH_FIN            .v/v                                    : Описание 
VSH_GR             .v/v                                    : Shale volume 
VSH_SP             .v/v                                    : Shale Volume 
~Ascii
# ...
1103.8     0.222208   -9999      -9999      314.4922   15.575     2.54       1.209      1.144      1.176      1.36       1.319      1.3        1.49       1.38       0.0156963  -0.0385064 0.054      0.06989901 0.0162468  0.005468795 0.8600097  2.479      1.319      0          0          201.512    0.6900151  0.6900151  0.8       
1103.9     0.222508   -9999      -9999      313.5763   15.887     2.454      1.366      1.259      1.278      1.445      1.37       1.44       1.69       1.58       0.01       -0.05562153 0.027      0.05817434 0.01       0.004289259 0.7644283  2.495      1.37       0          0          201.852    0.7240218  0.7240218  0.8       
1104       0.222108   -9999      -9999      311.2891   16.255     2.531      1.469      1.304      1.279      1.466      1.401      1.67       1.75       1.56       0.01       -0.0482205 0.026      0.04224075 0.01       0.004289259 0.6652526  2.467      1.401      0          0          201.805    0.7662925  0.7662925  0.8       
1104.1     0.222208   -9999      -9999      310.5502   15.972     2.337      1.388      1.236      1.195      1.445      1.419      1.65       1.57       1.44       0.0161051  -0.01941448 0.017      0.05162469 0.01479276 0.00556498 0.740282   2.431      1.419      0          0          201.882    0.7335735  0.7335735  0.8       
1104.2     0.222608   -9999      -9999      309.8797   15.698     2.48       1.331      1.205      1.176      1.446      1.447      1.52       1.48       1.42       0.02622086 -0.007900568 0.059      0.06034228 0.01604972 0.008567062 0.8209787  2.423      1.447      0          0          202.075    0.7032266  0.7032266  0.8       
1104.3     0.222208   -9999      -9999      309.3038   15.364     2.187      1.415      1.282      1.24       1.486      1.488      1.56       1.53       1.49       0.03502188 -0.0006784975 0.01       0.07072224 0.02466075 0.01246947 0.9313353  2.424      1.488      0          0          202.29     0.6679272  0.6679272  0.8       
1104.4     0.222808   -9999      -9999      310.8272   15.351     2.262      1.519      1.381      1.325      1.552      1.55       1.67       1.54       1.53       0.03598673 -0.0009809047 0.042      0.07295436 0.03450955 0.0129933  0.9359189  2.425      1.55       0          0          202.464    0.6665896  0.6665896  0.8       
1104.5     0.222208   -9999      -9999      309.7327   15.601     2.446      1.559      1.426      1.383      1.619      1.614      1.77       1.49       1.54       0.02832755 -0.006785113 0.024      0.0634402  0.02360744 0.009372445 0.8516071  2.425      1.614      0          0          202.838    0.692787   0.692787   0.8       
1104.6     0.222608   -9999      -9999      310.9551   15.329     2.222      1.597      1.456      1.424      1.668      1.661      1.83       1.53       1.56       0.03786397 0.001914405 0.01       0.07381353 0.0224572  0.01407637 0.9437262  2.421      1.661      0          0          203.502    0.6643323  0.6643323  0.8       
1104.7     0.222408   -9999      -9999      309.0344   14.917     2.278      1.646      1.502      1.465      1.713      1.676      1.88       1.66       1.63       0.04766064 0.01097398 0.033      0.0843473  0.02598699 0.0213771  1.102585   2.421      1.676      0          0          203.648    0.6234418  0.6234418  0.8       
1104.8     0.221908   -9999      -9999      308.7999   14.597     2.324      1.689      1.541      1.501      1.748      1.681      1.95       1.74       1.66       0.05075998 0.008043137 0.045      0.09347682 0.03252157 0.0243981  1.244201   2.437      1.681      0          0          203.758    0.5934268  0.5934268  0.8       
1104.9     0.222108   -9999      -9999      306.7737   14.293     2.234      1.709      1.55       1.504      1.75       1.669      2.04       1.76       1.67       0.04752547 -0.004498959 0.065      0.09954989 0.04375052 0.02125421 1.395549   2.468      1.669      0          0          203.798    0.5662522  0.5662522  0.8       
1105       0.222008   -9999      -9999      306.5943   14.454     2.319      1.665      1.508      1.464      1.707      1.633      2.04       1.72       1.6        0.03851861 -0.01783202 0.048      0.09486924 0.02958399 0.01447492 1.313232   2.485      1.633      0          0          203.56     0.5804853  0.5804853  0.8       
1105.1     0.222008   -9999      -9999      305.496    14.408     2.279      1.551      1.419      1.393      1.641      1.58       1.83       1.6        1.52       0.03954431 -0.0157255 0.022      0.09481412 0.03563724 0.01512218 1.336243   2.483      1.58       0          0          203.416    0.5763826  0.5763826  0.8       
1105.2     0.222308   -9999      -9999      306.8285   14.35      2.355      1.471      1.356      1.335      1.572      1.524      1.78       1.57       1.52       0.04412563 -0.009798063 0.018      0.09804932 0.03760097 0.01838534 1.365832   2.475      1.524      0          0          203.424    0.571251   0.571251   0.8       
1105.3     0.222108   -9999      -9999      307.1371   14.662     2.224      1.443      1.323      1.297      1.516      1.467      1.72       1.55       1.47       0.03827763 -0.0130417 0.004      0.08959696 0.02947915 0.01432691 1.214034   2.47       1.467      0          0          203.095    0.5994043  0.5994043  0.8       
1105.4     0.222808   -9999      -9999      309.2552   14.755     2.263      1.419      1.29       1.262      1.465      1.42       1.64       1.49       1.43       0.04053036 -0.008373012 0.036      0.08943374 0.0273135  0.01577171 1.172139   2.459      1.42       0          0          202.922    0.6080617  0.6080617  0.8       
1105.5     0.222708   -9999      -9999      310.8057   14.739     2.216      1.395      1.26       1.22       1.42       1.382      1.6        1.5        1.43       0.04784202 0.003935122 0.088      0.09174892 0.03246756 0.0215431  1.179242   2.439      1.382      0          0          202.686    0.6065634  0.6065634  0.8       
1105.6     0.222508   -9999      -9999      312.0682   15.146     2.311      1.326      1.199      1.173      1.382      1.348      1.54       1.5        1.37       0.04945324 0.0179856  0.046      0.08092088 0.0244928  0.02307555 1.011247   2.401      1.348      0          0          202.646    0.6458487  0.6458487  0.8       
1105.7     0.222708   -9999      -9999      314.1895   15.391     2.391      1.251      1.128      1.13       1.355      1.331      1.48       1.44       1.31       0.05242159 0.02924315 0.049      0.07560004 0.03162158 0.02618986 0.9218882  2.373      1.331      0          0          202.689    0.6707136  0.6707136  0.8       
1105.8     0.222708   -9999      -9999      314.1959   16.487     2.348      1.246      1.11       1.112      1.343      1.334      1.41       1.43       1.31       0.01848892 0.0000873  0.044      0.03689058 0.01704363 0.006160524 0.6094524  2.376      1.334      0          0          202.465    0.794201   0.794201   0.8       
1105.9     0.222208   -9999      -9999      315.7355   16.776     2.355      1.281      1.138      1.122      1.346      1.348      1.41       1.48       1.36       0.01513051 -0.006586823 0.017      0.03684784 0.01770659 0.005338408 0.5464435  2.385      1.348      0          0          202.123    0.8        0.8        0.8       
1106       0.222908   -9999      -9999      315.0676   15.719     2.365      1.303      1.162      1.134      1.357      1.372      1.45       1.49       1.36       0.03643453 0.007163   0.006      0.06570605 0.0250815  0.01324384 0.8144943  2.397      1.372      0          0          201.891    0.7055073  0.7055073  0.8       
1106.1     0.222608   -9999      -9999      315.1959   15.207     2.248      1.298      1.168      1.143      1.372      1.402      1.49       1.47       1.37       0.04634578 0.01004659 0.033      0.08264497 0.0270233  0.02021131 0.9882196  2.412      1.402      0          0          201.8      0.651952   0.651952   0.8       
1106.2     0.222908   -9999      -9999      314.1292   15.305     2.463      1.333      1.203      1.17       1.396      1.437      1.53       1.53       1.43       0.04037921 0.002458075 0.025      0.07830034 0.02472904 0.01567036 0.9523176  2.421      1.437      0          0          201.728    0.6618784  0.6618784  0.8       
