~Version
 VERS              .         2.0                           : CWLS LOG ASCII STANDARD - VERSION 2.0
 WRAP              .         NO                            : ONE LINE PER DEPTH STEP
 DLM               .         SPACE                         : DELIMITING CHARACTER(SPACE TAB OR COMMA)
~Well Information
#_______________________________________________________________________________
#
#PARAMETER_NAME    .UNIT     VALUE                         : DESCRIPTION
#_______________________________________________________________________________
STRT               .M        218.7                         : First reference value
STOP               .M        1168.5                        : Last reference value
STEP               .M        0.1                           : Step increment
NULL               .         -9999                         : Missing value
COMP               .                                       : Company
WELL               .         9671                          : Well name
FLD                .         УЗЕНЬ                         : Field
LOC                .                                       : Location
CNTY               .                                       : County
STAT               .                                       : State
CTRY               .                                       : Country
SRVC               .         AO "UPGF"                     : Service Company
DATE               .         8/2/2018                      : Date
API                .                                       : API number
Block              .         6а                            : 
Cartographic_reference_system .         GCS_WGS_1984                  : ESRI,PE_10_3_1- <?xml version="1.0" encoding="utf-16"?><ILateBoundCoordinateReferenceSystem name="GCS_WGS_1984"><AuthorityCode>EPSG,4326</AuthorityCode></ILateBoundCoordinateReferenceSystem>
Category           .         Нефтяная                      : 
Condition          .         В работе                      : 
Date               .         03.03.2018                    : 
EREF               .m        77.812                        : 
GRP                .                                       : Group name
HZCS               .GCS_WGS_1984 WGS_1984_EASE-Grid_2.0_Global : ESRI,PE_10_3_1- <?xml version="1.0" encoding="utf-16"?><ILateBoundCoordinateReferenceSystem name="WGS_1984_EASE-Grid_2.0_Global"><AuthorityCode>EPSG,6933</AuthorityCode></ILateBoundCoordinateReferenceSystem>
ISS                .                                       : Well surUveys
Interpretator      .         Ким С.В.                      : 
LATI               .dega     0.6667519455                  : GCS_WGS_1984
LONG               .dega     0.4550595161                  : GCS_WGS_1984
Mud                .         калий-хлор                    : 
Mud_density        .         1.34                          : 
Mud_resistivity    .         0.03                          : 
NGDU               .         НГДУ-2                        : 
SPDA               .         08/02/2018                    : 
TIME               .                                       : LOG TIME
Viscosity          .         45                            : 
X                  .m        43907.00                      : 
Y                  .m        85057.87                      : 
YEAR               .         2018                          : 
~Parameter Information Block
#_______________________________________________________________________________
#
#PARAMETER_NAME    .UNIT     VALUE                         : DESCRIPTION
#_______________________________________________________________________________
SET                .         LQC_KAZNIPI_Petrel            : 
TLFamily_CALI      .         Caliper                       : 
TLFamily_COLL      .         Net Reservoir Flag            : 
TLFamily_CSAT      .         Fluid Code                    : 
TLFamily_DEPT      .         Measured Depth                : 
TLFamily_DT        .         Compressional Slowness        : 
TLFamily_GR        .         Russian Gamma Ray             : 
TLFamily_GZ3       .         Gradient 225                  : 
TLFamily_IK1       .         Resistivity 05                : 
TLFamily_IK2       .         Resistivity 07                : 
TLFamily_IK3       .         Resistivity 10                : 
TLFamily_IK4       .         Resistivity 14                : 
TLFamily_IK5       .         Resistivity 20                : 
TLFamily_LLS       .         Lateral Log Resistivity       : 
TLFamily_MINV      .         Micro Gradient Resistivity    : 
TLFamily_MNOR      .         Micro Resistivity             : 
TLFamily_PHIE      .         Effective Porosity            : 
TLFamily_PHIED     .         Effective Porosity            : 
TLFamily_PHIEN     .         Effective Porosity            : 
TLFamily_PHIES     .         Effective Porosity            : 
TLFamily_PHIT      .         Porosity                      : 
TLFamily_PRMB      .         Permeability                  : 
TLFamily_PRMB_DGR  .         Permeability                  : 
TLFamily_RHOB      .         Bulk Density                  : 
TLFamily_RT        .         Formation Resistivity         : 
TLFamily_SOIL_ARCHIE .         Oil Saturation                : 
TLFamily_SOIL_DW   .         Oil Saturation                : 
TLFamily_SP        .         Spontaneous Potential         : 
TLFamily_VSH_FIN   .         Shale Volume                  : 
TLFamily_VSH_GR    .         Shale Volume                  : 
TLFamily_VSH_SP    .         Shale Volume                  : 
~Curve Information
#_______________________________________________________________________________
#
#LOGNAME           .UNIT     LOG_ID                        : DESCRIPTION
#_______________________________________________________________________________
DEPT               .M                                      : Depth curve 
CALI               .M                                      : Кавернометрия 
COLL               .unitless                               : Описание 
CSAT               .unitless                               : Описание 
DT                 .мкс/м                                  : 1 ДельтаТ - Волна по 
GR                 .uR/h                                   : ГК 
GZ3                .Ohmm                                   : A2.0M0.5N 
IK1                .Ohmm                                   : И0.10И0.40 
IK2                .Ohmm                                   : И0.14И0.56 
IK3                .Ohmm                                   : И0.20И0.8 
IK4                .Ohmm                                   : И0.28И1.12 
IK5                .Ohmm                                   : И0.40И1.60 
LLS                .Ohmm                                   : БК, Омм 
MINV               .Ohmm                                   : МГЗ, Омм 
MNOR               .Ohmm                                   : МПЗ, Омм 
PHIE               .v/v                                    : Описание 
PHIED              .v/v                                    :  
PHIEN              .v/v                                    : Porosity by NL 
PHIES              .v/v                                    :  
PHIT               .v/v                                    : Описание 
PRMB               .мД                                     :  
PRMB_DGR           .мД                                     :  
RHOB               .G/CM3                                  : ГГКП 
RT                 .ohmm                                   : Description 
SOIL_ARCHIE        .v/v                                    :  
SOIL_DW            .v/v                                    :  
SP                 .мВ                                     : ПС 
VSH_FIN            .v/v                                    : Описание 
VSH_GR             .v/v                                    : Shale volume 
VSH_SP             .v/v                                    : Shale Volume 
~Ascii
# ...
1143.1     0.220508   6          6          241.9927   10.591     5.011      6.968999999999999 5.963      5.528      6.388      6.386999999999999 10.27      1.21       1.68       0.09230237 0          0.149      0.1279071  -9999      0.1434901  32.0887    2.684      6.387      0.2641582  -9999      211.646    0.1574057  0.1574057  0.8       
1143.2     0.221208   6          6          254.443    9.621      5.461      8.598000000000001 6.87       6.058000000000001 6.521000000000001 6.49       15.23      0.91       1.36       0.1090791  0          0.162      0.1652374  -9999      0.2934729  73.65005   2.683      6.49       0.3685266  -9999      211.7      0.1121205  0.1121205  0.8       
1143.3     0.221208   6          6          252.7759   9.564      5.929      10.427     8.192      6.771000000000001 6.538      6.221000000000001 16.96      0.79       1.26       0.1117152  0.01017957 0.162      0.1629661  -9999      0.3283937  77.33499   2.653      6.221      0.3691156  -9999      211.812    0.1099075  0.1099075  0.8       
1143.4     0.217808   6          6          272.2361   9.904      6.289      9.903000000000001 8.375999999999999 7.015000000000001 6.108      5.611999999999999 10.76      0.68       1.1        0.1326234  0.04790424 0.159      0.1909661  -9999      0.8010619  57.79663   2.59       5.612      0.4297663  -9999      211.884    0.1237857  0.1237857  0.8       
1143.5     0.216608   1          2          284.5341   9.281      7.038      5.816000000000001 5.414      5.712999999999999 5.406999999999999 5.000999999999999 6.32       0.61       0.98       0.1582464  0.09401197 0.164      0.2167274  -9999      2.389275   98.5477    2.513      5.001      0.4839038  -9999      211.642    0.09955012 0.09955012 0.8       
1143.6     0.217508   1          2          301.1598   9.536      7.275      3.62       3.448      4.405      4.792      4.464      4.93       0.65       0.98       0.1852993  0.1568862  0.163      0.2360118  -9999      7.574454   79.21207   2.408      4.464      0.5255553  -9999      211.506    0.1088364  0.1088364  0.8       
1143.7     0.218308   1          2          314.3947   10.191     7.282      2.995      2.881      3.903000000000001 4.509000000000001 4.039999999999999 3.89       0.73       1.02       0.2232482  0.2365269  0.19       0.2432178  -9999      38.217     45.20061   2.275      4.04       0.5772803  -9999      211.142    0.1368559  0.1368559  0.8       
1143.8     0.217808   1          2          313.4215   10.23      7.038      2.705      2.766      3.871999999999999 4.586      3.818      3.23       0.73       1.03       0.2541842  0.2730539  0.248      0.2414987  -9999      142.9771   43.71568   2.214      3.818      0.6123111  -9999      210.974    0.1387354  0.1387354  0.8       
1143.9     0.218208   1          2          315.683    10.166     7.114      2.507      2.732      3.863      4.681      3.782      2.9        0.72       1.04       0.2627121  0.2700598  0.273      0.2450763  -9999      205.6946   46.17889   2.219      3.782      0.6216166  -9999      210.806    0.1356645  0.1356645  0.8       
1144       0.216808   1          2          293.8766   10.508     6.906001   2.289      2.677      3.748      4.535      3.713      2.74       0.73       1.06       0.2351607  0.2497006  0.243      0.2127816  -9999      63.51926   34.45294   2.253      3.713      0.5796698  -9999      210.741    0.1529021  0.1529021  0.8       
1144.1     0.216408   1          2          292.1937   11.189     6.944      2.06       2.585      3.606      4.322      3.58       2.68       0.76       1.07       0.2393195  0.2443113  0.276      0.1976472  -9999      75.84651   19.22682   2.262      3.58       0.5788916  -9999      210.406    0.1940224  0.1940224  0.8       
1144.2     0.218108   1          2          266.1305   11.015     6.926      1.896      2.466      3.457      4.196      3.455000000000001 2.7        0.77       1.11       0.2180689  0.2443113  0.247      0.1628955  -9999      30.64248   22.3168    2.262      3.455      0.5356882  -9999      209.973    0.1825672  0.1825672  0.8       
1144.3     0.214608   1          2          273.7394   11.185     6.834      1.787      2.285      3.164      4.057      3.304      2.66       0.76       1.11       0.226416   0.2449102  0.263      0.1713376  -9999      43.74526   19.2928    2.261      3.304      0.5411094  -9999      209.664    0.1937512  0.1937512  0.8       
1144.4     0.214308   1          2          261.544    11.327     6.935      1.635      2.007      2.726      3.682999999999999 3.084      2.5        0.7        1.08       0.2220211  0.2473054  0.27       0.1487578  -9999      36.26828   17.0834    2.257      3.084      0.5178674  -9999      209.583    0.2036165  0.2036165  0.8       
1144.5     0.208508   1          2          278.1827   10.967     6.666      1.516      1.766      2.361      3.111      2.826      2.26       0.67       1.06       0.2270596  0.2467066  0.252      0.1824722  -9999      44.96277   23.25344   2.258      2.826      0.5074126  -9999      209.143    0.1795278  0.1795278  0.8       
1144.6     0.214808   1          2          279.7326   11.364     6.528999   1.447      1.62       2.115      2.627      2.588      2.06       0.65       1.05       0.2296931  0.2437126  0.269      0.1763667  -9999      50.30736   16.55048   2.263      2.588      0.4917808  -9999      208.77     0.2062686  0.2062686  0.8       
1144.7     0.196708   1          2          294.389    12.073     6.068      1.431      1.531      1.924      2.375      2.339      1.91       0.65       1.04       0.211082   0.2407186  0.214      0.1785275  -9999      22.74622   9.017305   2.268      2.339      0.426374   -9999      208.708    0.2643166  0.2643166  0.8       
1144.8     0.196908   1          2          298.8522   11.819     5.910999   1.389      1.455      1.751      2.233      2.146      1.77       0.62       1          0.2271631  0.2431138  0.247      0.1913754  -9999      45.16161   11.20881   2.264      2.146      0.4397165  -9999      208.671    0.2418488  0.2418488  0.8       
1144.9     0.206308   1          2          305.3022   11.764     5.803      1.367      1.404      1.611      2.112      2.043      1.74       0.6        0.98       0.2147455  0.2353294  0.208      0.2009072  -9999      26.59294   11.74949   2.277      2.043      0.3978634  -9999      208.752    0.237241   0.237241   0.8       
1145       0.212608   1          2          307.4885   12.332     5.719      1.359      1.382      1.529      1.995      2          1.7        0.62       0.97       0.2300551  0.2299401  0.273      0.1872252  -9999      51.09011   7.223268   2.286      2          0.4272276  -9999      208.714    0.2893773  0.2893773  0.8       
1145.1     0.214608   -9999      -9999      308.3565   12.737     6.071      1.33       1.372      1.478      1.907      1.994      1.71       0.68       0.98       0.2079439  0.2173653  0.232      0.1744665  -9999      19.89683   5.106008   2.307      1.994      0.3736506  -9999      209.036    0.3334118  0.3334118  0.8       
1145.2     0.215608   -9999      -9999      309.2644   12.75      5.727      1.328      1.394      1.458      1.845      2.013      1.74       0.69       0.98       0.2022201  0.2095809  0.222      0.1750793  -9999      15.58705   5.049471   2.32       2.013      0.3610871  -9999      209.199    0.3349311  0.3349311  0.8       
1145.3     0.217208   -9999      -9999      308.4747   12.754     5.838      1.367      1.447      1.494      1.827      2.046      1.75       0.67       0.98       0.1976558  0.208982   0.21       0.1739853  -9999      12.82987   5.032201   2.321      2.046      0.3532103  -9999      209.274    0.3353999  0.3353999  0.8       
1145.4     0.216808   -9999      -9999      309.4672   13.065     5.679      1.443      1.535      1.574      1.847      2.079      1.83       0.68       0.99       0.2049526  0.2167664  0.235      0.1630914  -9999      17.51368   3.855423   2.308      2.079      0.3780006  -9999      209.35     0.3739395  0.3739395  0.8       
