~Version
 VERS              .         2.0                           : CWLS LOG ASCII STANDARD - VERSION 2.0
 WRAP              .         NO                            : ONE LINE PER DEPTH STEP
 DLM               .         SPACE                         : DELIMITING CHARACTER(SPACE TAB OR COMMA)
~Well Information
#_______________________________________________________________________________
#
#PARAMETER_NAME    .UNIT     VALUE                         : DESCRIPTION
#_______________________________________________________________________________
STRT               .M        218.7                         : First reference value
STOP               .M        1168.5                        : Last reference value
STEP               .M        0.1                           : Step increment
NULL               .         -9999                         : Missing value
COMP               .                                       : Company
WELL               .         9671                          : Well name
FLD                .         УЗЕНЬ                         : Field
LOC                .                                       : Location
CNTY               .                                       : County
STAT               .                                       : State
CTRY               .                                       : Country
SRVC               .         AO "UPGF"                     : Service Company
DATE               .         8/2/2018                      : Date
API                .                                       : API number
Block              .         6а                            : 
Cartographic_reference_system .         GCS_WGS_1984                  : ESRI,PE_10_3_1- <?xml version="1.0" encoding="utf-16"?><ILateBoundCoordinateReferenceSystem name="GCS_WGS_1984"><AuthorityCode>EPSG,4326</AuthorityCode></ILateBoundCoordinateReferenceSystem>
Category           .         Нефтяная                      : 
Condition          .         В работе                      : 
Date               .         03.03.2018                    : 
EREF               .m        77.812                        : 
GRP                .                                       : Group name
HZCS               .GCS_WGS_1984 WGS_1984_EASE-Grid_2.0_Global : ESRI,PE_10_3_1- <?xml version="1.0" encoding="utf-16"?><ILateBoundCoordinateReferenceSystem name="WGS_1984_EASE-Grid_2.0_Global"><AuthorityCode>EPSG,6933</AuthorityCode></ILateBoundCoordinateReferenceSystem>
ISS                .                                       : Well surUveys
Interpretator      .         Ким С.В.                      : 
LATI               .dega     0.6667519455                  : GCS_WGS_1984
LONG               .dega     0.4550595161                  : GCS_WGS_1984
Mud                .         калий-хлор                    : 
Mud_density        .         1.34                          : 
Mud_resistivity    .         0.03                          : 
NGDU               .         НГДУ-2                        : 
SPDA               .         08/02/2018                    : 
TIME               .                                       : LOG TIME
Viscosity          .         45                            : 
X                  .m        43907.00                      : 
Y                  .m        85057.87                      : 
YEAR               .         2018                          : 
~Parameter Information Block
#_______________________________________________________________________________
#
#PARAMETER_NAME    .UNIT     VALUE                         : DESCRIPTION
#_______________________________________________________________________________
SET                .         LQC_KAZNIPI_Petrel            : 
TLFamily_CALI      .         Caliper                       : 
TLFamily_COLL      .         Net Reservoir Flag            : 
TLFamily_CSAT      .         Fluid Code                    : 
TLFamily_DEPT      .         Measured Depth                : 
TLFamily_DT        .         Compressional Slowness        : 
TLFamily_GR        .         Russian Gamma Ray             : 
TLFamily_GZ3       .         Gradient 225                  : 
TLFamily_IK1       .         Resistivity 05                : 
TLFamily_IK2       .         Resistivity 07                : 
TLFamily_IK3       .         Resistivity 10                : 
TLFamily_IK4       .         Resistivity 14                : 
TLFamily_IK5       .         Resistivity 20                : 
TLFamily_LLS       .         Lateral Log Resistivity       : 
TLFamily_MINV      .         Micro Gradient Resistivity    : 
TLFamily_MNOR      .         Micro Resistivity             : 
TLFamily_PHIE      .         Effective Porosity            : 
TLFamily_PHIED     .         Effective Porosity            : 
TLFamily_PHIEN     .         Effective Porosity            : 
TLFamily_PHIES     .         Effective Porosity            : 
TLFamily_PHIT      .         Porosity                      : 
TLFamily_PRMB      .         Permeability                  : 
TLFamily_PRMB_DGR  .         Permeability                  : 
TLFamily_RHOB      .         Bulk Density                  : 
TLFamily_RT        .         Formation Resistivity         : 
TLFamily_SOIL_ARCHIE .         Oil Saturation                : 
TLFamily_SOIL_DW   .         Oil Saturation                : 
TLFamily_SP        .         Spontaneous Potential         : 
TLFamily_VSH_FIN   .         Shale Volume                  : 
TLFamily_VSH_GR    .         Shale Volume                  : 
TLFamily_VSH_SP    .         Shale Volume                  : 
~Curve Information
#_______________________________________________________________________________
#
#LOGNAME           .UNIT     LOG_ID                        : DESCRIPTION
#_______________________________________________________________________________
DEPT               .M                                      : Depth curve 
CALI               .M                                      : Кавернометрия 
COLL               .unitless                               : Описание 
CSAT               .unitless                               : Описание 
DT                 .мкс/м                                  : 1 ДельтаТ - Волна по 
GR                 .uR/h                                   : ГК 
GZ3                .Ohmm                                   : A2.0M0.5N 
IK1                .Ohmm                                   : И0.10И0.40 
IK2                .Ohmm                                   : И0.14И0.56 
IK3                .Ohmm                                   : И0.20И0.8 
IK4                .Ohmm                                   : И0.28И1.12 
IK5                .Ohmm                                   : И0.40И1.60 
LLS                .Ohmm                                   : БК, Омм 
MINV               .Ohmm                                   : МГЗ, Омм 
MNOR               .Ohmm                                   : МПЗ, Омм 
PHIE               .v/v                                    : Описание 
PHIED              .v/v                                    :  
PHIEN              .v/v                                    : Porosity by NL 
PHIES              .v/v                                    :  
PHIT               .v/v                                    : Описание 
PRMB               .мД                                     :  
PRMB_DGR           .мД                                     :  
RHOB               .G/CM3                                  : ГГКП 
RT                 .ohmm                                   : Description 
SOIL_ARCHIE        .v/v                                    :  
SOIL_DW            .v/v                                    :  
SP                 .мВ                                     : ПС 
VSH_FIN            .v/v                                    : Описание 
VSH_GR             .v/v                                    : Shale volume 
VSH_SP             .v/v                                    : Shale Volume 
~Ascii
# ...
929.5      0.225108   -9999      -9999      251.9363   7.611      4.09       2.046      1.984      2.137      2.78       3.08       2.66       1.71       1.78       0.1093389  0.09700605 -9999      0.1216717  -9999      0.2967422  11.80257   2.508      3.08       0.5402125  -9999      211.524    0.2368047  0.2368047  0.8       
929.6      0.225408   -9999      -9999      257.0763   8.049      3.619      2.059      1.992      2.153      2.806      3.125      2.57       1.7        1.8        0.1048107  0.09880233 -9999      0.1108191  -9999      0.2446281  6.592591   2.505      3.125      0.5261949  -9999      210.743    0.3003767  0.3003767  0.8       
929.7000000000001 0.225608   -9999      -9999      260.0146   8.04       3.614      2.103      2.057      2.239      2.927      3.266      2.53       1.68       1.86       0.1072552  0.09820357 -9999      0.1163068  -9999      0.2715091  6.671954   2.506      3.266      0.5451323  -9999      210.125    0.2989125  0.2989125  0.8       
929.8      0.225208   -9999      -9999      259.2971   7.832      3.628      2.251      2.205      2.4        3.144      3.548      2.61       1.74       1.95       0.1179378  0.1107785  -9999      0.125097   -9999      0.4282047  8.797544   2.485      3.548      0.5971962  -9999      209.329    0.266993   0.266993   0.8       
929.9      0.225308   -9999      -9999      255.5696   7.102      3.38       2.512      2.485      2.7        3.521      3.904      2.78       1.89       2.13       0.1287155  0.1113773  -9999      0.1460538  -9999      0.6780816  23.22177   2.484      3.904      0.6431138  -9999      208.364    0.1796278  0.1796278  0.8       
930        0.224308   -9999      -9999      249.9834   6.937      3.663      2.916      2.947      3.118      3.98       4.3        3.08       2.11       2.46       0.114151   0.08742519 -9999      0.1408768  -9999      0.3643441  28.91837   2.524      4.3        0.6213297  -9999      207.355    0.1642359  0.1642359  0.8       
930.1      0.224308   -9999      -9999      243.6446   6.915      3.731      3.636000000000001 3.525      3.591      4.389      4.656999999999999 4.2        2.62       3.02       0.0839528  0.03832338 -9999      0.1295822  -9999      0.1005003  29.77676   2.606      4.657      0.5233155  -9999      206.528    0.1622859  0.1622859  0.8       
930.2000000000001 0.222408   -9999      -9999      236.7212   6.534      4.213      4.262      3.927      3.865      4.565999999999999 4.812      6.65       2.91       3.34       0.06267875 0          -9999      0.1253575  -9999      0.0405621  49.41785   2.674      4.812      0.3945264  -9999      205.544    0.1319608  0.1319608  0.8       
930.3      0.223008   -9999      -9999      232.4317   6.372      4.414      4.265999999999999 3.815      3.738      4.428      4.705      8.09       2.9        3.25       0.05996122 0          -9999      0.1199224  -9999      0.03612312 61.29562   2.672      4.705      0.3640196  -9999      204.648    0.1208501  0.1208501  0.8       
930.4      0.222208   -9999      -9999      228.7618   5.99       4.83       3.827      3.459      3.435000000000001 4.053999999999999 4.43       7.27       2.72       2.93       0.07273536 0.02634735 -9999      0.1191234  -9999      0.06228643 101.8623   2.626      4.43       0.4470747  -9999      203.867    0.09821444 0.09821444 0.8       
930.5      0.223108   -9999      -9999      227.6946   5.569      5.111      3.318000000000001 3.062      3.128      3.735      4.131      5.43       2.24       2.39       0.09117641 0.05928138 -9999      0.1230714  -9999      0.1367623  178.286    2.571      4.131      0.5307165  -9999      203.073    0.0781462  0.0781462  0.8       
930.6      0.223408   -9999      -9999      230.9113   5.814      5.34       2.976      2.819      2.961      3.586      3.939      4.02       1.91       2.08       0.1007175  0.07485025 -9999      0.1265848  -9999      0.2054429  128.7192   2.545      3.939      0.5599624  -9999      202.339    0.08926402 0.08926402 0.8       
930.7000000000001 0.224208   -9999      -9999      232.9878   6.413      5.559      2.92       2.829      3.006      3.617      3.91       3.63       1.92       2.09       0.1035353  0.08682629 -9999      0.1202442  -9999      0.2316767  58.04361   2.525      3.91       0.5689189  -9999      201.841    0.1235704  0.1235704  0.8       
930.8      0.224008   -9999      -9999      239.6692   6.727      5.649      3.004      3.009      3.191      3.811      4.029      3.59       2          2.22       0.1079764  0.08922161 -9999      0.1267312  -9999      0.2799903  38.23286   2.521      4.029      0.5902092  -9999      201.502    0.1465387  0.1465387  0.8       
930.9      0.223808   -9999      -9999      243.8322   7.002      6.162001   3.117      3.203      3.399      4.039000000000001 4.195      3.75       2.04       2.39       0.1017652  0.07604791 -9999      0.1274824  -9999      0.2148303  26.52405   2.543      4.195      0.5766074  -9999      201.183    0.1701353  0.1701353  0.8       
931        0.223308   -9999      -9999      247.8862   7.007      6.578001   3.247      3.342      3.579      4.263      4.348      4.17       2.13       2.66       0.09624782 0.0574851  -9999      0.1350105  -9999      0.1697857  26.3483    2.574      4.348      0.5629543  -9999      200.96     0.1705978  0.1705978  0.8       
931.1      0.222908   -9999      -9999      252.5121   6.886      6.869      3.402      3.392999999999999 3.662      4.405999999999999 4.442      5.02       2.32       2.83       0.09768441 0.048503   -9999      0.1468658  -9999      0.1805137  30.94735   2.589      4.442      0.5728663  -9999      201.113    0.1597508  0.1597508  0.8       
931.2000000000001 0.223708   -9999      -9999      255.4164   6.477      7.448      3.326000000000001 3.231      3.513      4.428      4.469999999999999 5.16       2.2        2.5        0.1148279  0.06766472 -9999      0.161991   -9999      0.3750151  53.30867   2.557      4.47       0.6300669  -9999      201.469    0.1279396  0.1279396  0.8       
931.3      0.223508   -9999      -9999      259.015    6.275      7.572      3.063      2.984      3.313      4.396000000000001 4.480999999999999 4.26       1.69       2.11       0.1254118  0.0784431  -9999      0.1723805  -9999      0.5889643  69.73354   2.539      4.481      0.6578059  -9999      201.619    0.1146504  0.1146504  0.8       
931.4      0.224308   -9999      -9999      263.3907   6.376      8          3.057      3.016      3.354      4.461999999999999 4.524      3.8        1.62       2.14       0.1259717  0.0742515  -9999      0.1776918  -9999      0.6031965  60.97052   2.546      4.524      0.6606551  -9999      202.017    0.1211128  0.1211128  0.8       
931.5      0.224308   -9999      -9999      262.1419   6.155      8.22       3.359      3.378      3.682      4.73       4.613      4.02       1.94       2.53       0.1169042  0.05389226 -9999      0.1799161  -9999      0.4097389  81.79652   2.58       4.613      0.6411383  -9999      202.416    0.1074189  0.1074189  0.8       
931.6      0.223408   -9999      -9999      264.5333   6.239      8.494      3.854      3.927      4.041      5.003      4.715      5.05       2.43       3.14       0.1025222  0.02275451 -9999      0.1822898  -9999      0.2218795  73.1526    2.632      4.715      0.6017783  -9999      202.866    0.1124312  0.1124312  0.8       
931.7000000000001 0.222708   -9999      -9999      258.1042   6.42       9.102      4.247      4.243      4.138      4.988      4.662      8.23       2.82       3.5        0.08393881 0          -9999      0.1678776  -9999      0.1004404  57.50589   2.682      4.662      0.5234864  -9999      203.271    0.1240409  0.1240409  0.8       
931.8      0.223108   -9999      -9999      259.1043   6.035      9.540001   3.927      3.753000000000001 3.777      4.515      4.407      10.13      2.7        3.13       0.08846216 0          -9999      0.1769243  -9999      0.1218125  95.94633   2.708      4.407      0.532603   -9999      203.848    0.1006435  0.1006435  0.8       
