~Version
 VERS              .         2.0                           : CWLS LOG ASCII STANDARD - VERSION 2.0
 WRAP              .         NO                            : ONE LINE PER DEPTH STEP
 DLM               .         SPACE                         : DELIMITING CHARACTER(SPACE TAB OR COMMA)
~Well Information
#_______________________________________________________________________________
#
#PARAMETER_NAME    .UNIT     VALUE                         : DESCRIPTION
#_______________________________________________________________________________
STRT               .M        218.7                         : First reference value
STOP               .M        1168.5                        : Last reference value
STEP               .M        0.1                           : Step increment
NULL               .         -9999                         : Missing value
COMP               .                                       : Company
WELL               .         9671                          : Well name
FLD                .         УЗЕНЬ                         : Field
LOC                .                                       : Location
CNTY               .                                       : County
STAT               .                                       : State
CTRY               .                                       : Country
SRVC               .         AO "UPGF"                     : Service Company
DATE               .         8/2/2018                      : Date
API                .                                       : API number
Block              .         6а                            : 
Cartographic_reference_system .         GCS_WGS_1984                  : ESRI,PE_10_3_1- <?xml version="1.0" encoding="utf-16"?><ILateBoundCoordinateReferenceSystem name="GCS_WGS_1984"><AuthorityCode>EPSG,4326</AuthorityCode></ILateBoundCoordinateReferenceSystem>
Category           .         Нефтяная                      : 
Condition          .         В работе                      : 
Date               .         03.03.2018                    : 
EREF               .m        77.812                        : 
GRP                .                                       : Group name
HZCS               .GCS_WGS_1984 WGS_1984_EASE-Grid_2.0_Global : ESRI,PE_10_3_1- <?xml version="1.0" encoding="utf-16"?><ILateBoundCoordinateReferenceSystem name="WGS_1984_EASE-Grid_2.0_Global"><AuthorityCode>EPSG,6933</AuthorityCode></ILateBoundCoordinateReferenceSystem>
ISS                .                                       : Well surUveys
Interpretator      .         Ким С.В.                      : 
LATI               .dega     0.6667519455                  : GCS_WGS_1984
LONG               .dega     0.4550595161                  : GCS_WGS_1984
Mud                .         калий-хлор                    : 
Mud_density        .         1.34                          : 
Mud_resistivity    .         0.03                          : 
NGDU               .         НГДУ-2                        : 
SPDA               .         08/02/2018                    : 
TIME               .                                       : LOG TIME
Viscosity          .         45                            : 
X                  .m        43907.00                      : 
Y                  .m        85057.87                      : 
YEAR               .         2018                          : 
~Parameter Information Block
#_______________________________________________________________________________
#
#PARAMETER_NAME    .UNIT     VALUE                         : DESCRIPTION
#_______________________________________________________________________________
SET                .         LQC_KAZNIPI_Petrel            : 
TLFamily_CALI      .         Caliper                       : 
TLFamily_COLL      .         Net Reservoir Flag            : 
TLFamily_CSAT      .         Fluid Code                    : 
TLFamily_DEPT      .         Measured Depth                : 
TLFamily_DT        .         Compressional Slowness        : 
TLFamily_GR        .         Russian Gamma Ray             : 
TLFamily_GZ3       .         Gradient 225                  : 
TLFamily_IK1       .         Resistivity 05                : 
TLFamily_IK2       .         Resistivity 07                : 
TLFamily_IK3       .         Resistivity 10                : 
TLFamily_IK4       .         Resistivity 14                : 
TLFamily_IK5       .         Resistivity 20                : 
TLFamily_LLS       .         Lateral Log Resistivity       : 
TLFamily_MINV      .         Micro Gradient Resistivity    : 
TLFamily_MNOR      .         Micro Resistivity             : 
TLFamily_PHIE      .         Effective Porosity            : 
TLFamily_PHIED     .         Effective Porosity            : 
TLFamily_PHIEN     .         Effective Porosity            : 
TLFamily_PHIES     .         Effective Porosity            : 
TLFamily_PHIT      .         Porosity                      : 
TLFamily_PRMB      .         Permeability                  : 
TLFamily_PRMB_DGR  .         Permeability                  : 
TLFamily_RHOB      .         Bulk Density                  : 
TLFamily_RT        .         Formation Resistivity         : 
TLFamily_SOIL_ARCHIE .         Oil Saturation                : 
TLFamily_SOIL_DW   .         Oil Saturation                : 
TLFamily_SP        .         Spontaneous Potential         : 
TLFamily_VSH_FIN   .         Shale Volume                  : 
TLFamily_VSH_GR    .         Shale Volume                  : 
TLFamily_VSH_SP    .         Shale Volume                  : 
~Curve Information
#_______________________________________________________________________________
#
#LOGNAME           .UNIT     LOG_ID                        : DESCRIPTION
#_______________________________________________________________________________
DEPT               .M                                      : Depth curve 
CALI               .M                                      : Кавернометрия 
COLL               .unitless                               : Описание 
CSAT               .unitless                               : Описание 
DT                 .мкс/м                                  : 1 ДельтаТ - Волна по 
GR                 .uR/h                                   : ГК 
GZ3                .Ohmm                                   : A2.0M0.5N 
IK1                .Ohmm                                   : И0.10И0.40 
IK2                .Ohmm                                   : И0.14И0.56 
IK3                .Ohmm                                   : И0.20И0.8 
IK4                .Ohmm                                   : И0.28И1.12 
IK5                .Ohmm                                   : И0.40И1.60 
LLS                .Ohmm                                   : БК, Омм 
MINV               .Ohmm                                   : МГЗ, Омм 
MNOR               .Ohmm                                   : МПЗ, Омм 
PHIE               .v/v                                    : Описание 
PHIED              .v/v                                    :  
PHIEN              .v/v                                    : Porosity by NL 
PHIES              .v/v                                    :  
PHIT               .v/v                                    : Описание 
PRMB               .мД                                     :  
PRMB_DGR           .мД                                     :  
RHOB               .G/CM3                                  : ГГКП 
RT                 .ohmm                                   : Description 
SOIL_ARCHIE        .v/v                                    :  
SOIL_DW            .v/v                                    :  
SP                 .мВ                                     : ПС 
VSH_FIN            .v/v                                    : Описание 
VSH_GR             .v/v                                    : Shale volume 
VSH_SP             .v/v                                    : Shale Volume 
~Ascii
# ...
1006.6     0.223608   -9999      -9999      282.6287   6.303      6.025      2.623      2.409      2.37       2.959      3.005      2.9        2.26       2.12       0.1032163  0.05508978 -9999      0.1513429  -9999      0.2285467  6.642782   2.578      3.005      0.03559893 -9999      198.94     0.2994478  0.2994478  0.8       
1006.7     0.223708   -9999      -9999      289.5953   6.712      6.308001   2.277      2.156      2.087      2.64       2.721      2.58       2.12       1.92       0.1202025  0.08622753 -9999      0.1541774  -9999      0.4716278  5.58332    2.526      2.721      0.1151618  -9999      199.183    0.3214644  0.3214644  0.8       
1006.8     0.223608   -9999      -9999      295.701    7.492      6.215      2.005      1.888      1.868      2.343      2.466      2.27       2.02       1.78       0.1283569  0.1089821  -9999      0.1477317  -9999      0.6677883  4.008562   2.488      2.466      0.1248331  -9999      199.448    0.368039   0.368039   0.8       
1006.9     0.223508   -9999      -9999      304.9282   8.371      6.309      1.766      1.681      1.69       2.103      2.213      2.06       1.89       1.63       0.08171188 0.0229915  -9999      0.1404323  -9999      0.09133986 2.759431   2.473      2.213      0          -9999      199.742    0.4286599  0.4286599  0.8       
1007       0.224708   -9999      -9999      309.2612   8.713      6.295      1.39       1.5        1.494      1.87       2.001      1.75       1.6        1.38       0.07523476 0.01299521 -9999      0.1374743  -9999      0.06929284 2.38629    2.48       2.001      0          -9999      200.125    0.4548594  0.4548594  0.8       
1007.1     0.224308   -9999      -9999      317.5947   9.158      5.838      1.17       1.235      1.331      1.687      1.822      1.5        1.38       1.21       0.06912451 0.002512781 -9999      0.1357362  -9999      0.05339637 1.975259   2.484      1.822      0          -9999      200.169    0.4913613  0.4913613  0.8       
1007.2     0.235908   -9999      -9999      321.0788   9.651      5.617      1.087      1.11       1.207      1.554      1.683      1.33       1.29       1.16       0.06173714 -0.002416384 -9999      0.1258907  -9999      0.03896544 1.602025   2.476      1.683      0          -9999      200.214    0.5352305  0.5352305  0.8       
1007.3     0.257808   -9999      -9999      326.3577   9.972      5.351      1.158      1.177      1.218      1.479      1.611      1.32       1.3        1.22       0.05312571 -0.01579344 -9999      0.1220448  -9999      0.02698827 1.397807   2.487      1.611      0          -9999      200.873    0.5658785  0.5658785  0.8       
1007.4     0.255808   -9999      -9999      329.0486   10.354     5.198      1.302      1.328      1.322      1.497      1.61       1.42       1.39       1.34       0.04089373 -0.03096934 -9999      0.1127568  -9999      0.01601803 1.188423   2.498      1.61       0          -9999      201.532    0.6046457  0.6046457  0.8       
1007.5     0.243808   -9999      -9999      329.5045   10.505     5.088      1.376      1.399      1.367      1.584      1.65       1.53       1.42       1.35       0.03384706 -0.04051263 -9999      0.1082067  -9999      0.01186008 1.114583   2.508      1.65       0          -9999      201.978    0.6206924  0.6206924  0.8       
1007.6     0.244908   -9999      -9999      330.6562   10.103     4.889      1.372      1.382      1.347      1.642      1.706      1.51       1.44       1.36       0.04443938 -0.03364514 -9999      0.1225239  -9999      0.01863302 1.322144   2.512      1.706      0          -9999      202.182    0.5788846  0.5788846  0.8       
1007.7     0.241808   -9999      -9999      327.4598   10.076     4.928      1.37       1.387      1.35       1.655      1.756      1.52       1.44       1.38       0.04077992 -0.03843498 -9999      0.1199948  -9999      0.01594047 1.337396   2.521      1.756      0          -9999      202.383    0.5761797  0.5761797  0.8       
1007.8     0.245608   -9999      -9999      326.5102   9.491      4.953      1.42       1.428      1.391      1.684      1.781      1.56       1.46       1.42       0.05095559 -0.03449978 -9999      0.136411   -9999      0.02460249 1.714699   2.535      1.781      0          -9999      202.294    0.5205799  0.5205799  0.8       
1007.9     0.239708   -9999      -9999      323.135    9.751      4.576      1.487      1.478      1.45       1.739      1.799      1.69       1.46       1.48       0.04030526 -0.04461104 -9999      0.1252216  -9999      0.01562101 1.535394   2.543      1.799      0          -9999      202.256    0.5445958  0.5445958  0.8       
1008       0.234108   -9999      -9999      320.9496   9.777      4.512      1.545      1.52       1.5        1.78       1.837      1.74       1.45       1.49       0.03993829 -0.04216252 -9999      0.1220391  -9999      0.01537843 1.518529   2.538      1.837      0          -9999      202.42     0.5470576  0.5470576  0.8       
1008.1     0.236008   -9999      -9999      319.6707   9.733      4.361      1.564      1.536      1.527      1.798      1.853      1.74       1.49       1.52       0.04333213 -0.03525292 -9999      0.1219172  -9999      0.01777355 1.54718    2.528      1.853      0          -9999      202.488    0.542898   0.542898   0.8       
1008.2     0.226708   -9999      -9999      318.1476   9.55       4.4        1.59       1.553      1.546      1.808      1.846      1.77       1.51       1.56       0.04881031 -0.02790181 -9999      0.1255224  -9999      0.0224514  1.672257   2.522      1.846      0          -9999      202.314    0.525935   0.525935   0.8       
1008.3     0.223008   -9999      -9999      318.5019   9.781      4.309      1.622      1.568      1.552      1.813      1.822      1.84       1.47       1.57       0.03816767 -0.0428454 -9999      0.1191807  -9999      0.01425988 1.515952   2.539      1.822      0          -9999      202.274    0.5474373  0.5474373  0.8       
1008.4     0.227908   -9999      -9999      317.4059   9.796      4.474      1.581      1.539      1.524      1.812      1.799      1.76       1.38       1.52       0.03926177 -0.03896979 -9999      0.1174933  -9999      0.01494105 1.506323   2.532      1.799      0          -9999      201.971    0.5488635  0.5488635  0.8       
1008.5     0.233008   -9999      -9999      317.4516   9.872      4.261      1.519      1.492      1.485      1.809      1.783      1.74       1.35       1.48       0.04033306 -0.03459552 -9999      0.1152616  -9999      0.01563955 1.458466   2.522      1.783      0          -9999      201.937    0.5561472  0.5561472  0.8       
1008.6     0.234408   -9999      -9999      315.1077   9.612      4.172      1.505      1.474      1.467      1.803      1.77       1.72       1.4        1.48       0.04794956 -0.02437128 -9999      0.1202704  -9999      0.02164214 1.628787   2.514      1.77       0          -9999      201.694    0.5316219  0.5316219  0.8       
1008.7     0.234608   -9999      -9999      314.2646   9.431      4.086      1.493      1.459      1.453      1.789      1.763      1.73       1.5        1.49       0.04197864 -0.04049112 -9999      0.1244484  -9999      0.01677662 1.758966   2.547      1.763      0          -9999      201.392    0.5151898  0.5151898  0.8       
1008.8     0.232608   -9999      -9999      311.6205   9.549      3.853      1.461      1.422      1.429      1.765      1.762      1.72       1.54       1.49       0.02860188 -0.06081562 -9999      0.1180194  -9999      0.009482747 1.672968   2.577      1.762      0          -9999      200.957    0.5258437  0.5258437  0.8       
1008.9     0.229908   -9999      -9999      311.193    9.463      3.905      1.457      1.411      1.422      1.76       1.771      1.73       1.53       1.52       0.03462445 -0.05070733 -9999      0.1199562  -9999      0.0122599  1.735217   2.563      1.771      0          -9999      200.704    0.5180575  0.5180575  0.8       
1009       0.223808   -9999      -9999      310.2205   9.569      3.608      1.513      1.462      1.458      1.789      1.788      1.74       1.58       1.55       0.04075754 -0.03427451 -9999      0.1157896  -9999      0.01592526 1.658814   2.532      1.788      0          -9999      200.415    0.5276713  0.5276713  0.8       
