~Version
 VERS              .         2.0                           : CWLS LOG ASCII STANDARD - VERSION 2.0
 WRAP              .         NO                            : ONE LINE PER DEPTH STEP
 DLM               .         SPACE                         : DELIMITING CHARACTER(SPACE TAB OR COMMA)
~Well Information
#_______________________________________________________________________________
#
#PARAMETER_NAME    .UNIT     VALUE                         : DESCRIPTION
#_______________________________________________________________________________
STRT               .M        218.7                         : First reference value
STOP               .M        1168.5                        : Last reference value
STEP               .M        0.1                           : Step increment
NULL               .         -9999                         : Missing value
COMP               .                                       : Company
WELL               .         9671                          : Well name
FLD                .         УЗЕНЬ                         : Field
LOC                .                                       : Location
CNTY               .                                       : County
STAT               .                                       : State
CTRY               .                                       : Country
SRVC               .         AO "UPGF"                     : Service Company
DATE               .         8/2/2018                      : Date
API                .                                       : API number
Block              .         6а                            : 
Cartographic_reference_system .         GCS_WGS_1984                  : ESRI,PE_10_3_1- <?xml version="1.0" encoding="utf-16"?><ILateBoundCoordinateReferenceSystem name="GCS_WGS_1984"><AuthorityCode>EPSG,4326</AuthorityCode></ILateBoundCoordinateReferenceSystem>
Category           .         Нефтяная                      : 
Condition          .         В работе                      : 
Date               .         03.03.2018                    : 
EREF               .m        77.812                        : 
GRP                .                                       : Group name
HZCS               .GCS_WGS_1984 WGS_1984_EASE-Grid_2.0_Global : ESRI,PE_10_3_1- <?xml version="1.0" encoding="utf-16"?><ILateBoundCoordinateReferenceSystem name="WGS_1984_EASE-Grid_2.0_Global"><AuthorityCode>EPSG,6933</AuthorityCode></ILateBoundCoordinateReferenceSystem>
ISS                .                                       : Well surUveys
Interpretator      .         Ким С.В.                      : 
LATI               .dega     0.6667519455                  : GCS_WGS_1984
LONG               .dega     0.4550595161                  : GCS_WGS_1984
Mud                .         калий-хлор                    : 
Mud_density        .         1.34                          : 
Mud_resistivity    .         0.03                          : 
NGDU               .         НГДУ-2                        : 
SPDA               .         08/02/2018                    : 
TIME               .                                       : LOG TIME
Viscosity          .         45                            : 
X                  .m        43907.00                      : 
Y                  .m        85057.87                      : 
YEAR               .         2018                          : 
~Parameter Information Block
#_______________________________________________________________________________
#
#PARAMETER_NAME    .UNIT     VALUE                         : DESCRIPTION
#_______________________________________________________________________________
SET                .         LQC_KAZNIPI_Petrel            : 
TLFamily_CALI      .         Caliper                       : 
TLFamily_COLL      .         Net Reservoir Flag            : 
TLFamily_CSAT      .         Fluid Code                    : 
TLFamily_DEPT      .         Measured Depth                : 
TLFamily_DT        .         Compressional Slowness        : 
TLFamily_GR        .         Russian Gamma Ray             : 
TLFamily_GZ3       .         Gradient 225                  : 
TLFamily_IK1       .         Resistivity 05                : 
TLFamily_IK2       .         Resistivity 07                : 
TLFamily_IK3       .         Resistivity 10                : 
TLFamily_IK4       .         Resistivity 14                : 
TLFamily_IK5       .         Resistivity 20                : 
TLFamily_LLS       .         Lateral Log Resistivity       : 
TLFamily_MINV      .         Micro Gradient Resistivity    : 
TLFamily_MNOR      .         Micro Resistivity             : 
TLFamily_PHIE      .         Effective Porosity            : 
TLFamily_PHIED     .         Effective Porosity            : 
TLFamily_PHIEN     .         Effective Porosity            : 
TLFamily_PHIES     .         Effective Porosity            : 
TLFamily_PHIT      .         Porosity                      : 
TLFamily_PRMB      .         Permeability                  : 
TLFamily_PRMB_DGR  .         Permeability                  : 
TLFamily_RHOB      .         Bulk Density                  : 
TLFamily_RT        .         Formation Resistivity         : 
TLFamily_SOIL_ARCHIE .         Oil Saturation                : 
TLFamily_SOIL_DW   .         Oil Saturation                : 
TLFamily_SP        .         Spontaneous Potential         : 
TLFamily_VSH_FIN   .         Shale Volume                  : 
TLFamily_VSH_GR    .         Shale Volume                  : 
TLFamily_VSH_SP    .         Shale Volume                  : 
~Curve Information
#_______________________________________________________________________________
#
#LOGNAME           .UNIT     LOG_ID                        : DESCRIPTION
#_______________________________________________________________________________
DEPT               .M                                      : Depth curve 
CALI               .M                                      : Кавернометрия 
COLL               .unitless                               : Описание 
CSAT               .unitless                               : Описание 
DT                 .мкс/м                                  : 1 ДельтаТ - Волна по 
GR                 .uR/h                                   : ГК 
GZ3                .Ohmm                                   : A2.0M0.5N 
IK1                .Ohmm                                   : И0.10И0.40 
IK2                .Ohmm                                   : И0.14И0.56 
IK3                .Ohmm                                   : И0.20И0.8 
IK4                .Ohmm                                   : И0.28И1.12 
IK5                .Ohmm                                   : И0.40И1.60 
LLS                .Ohmm                                   : БК, Омм 
MINV               .Ohmm                                   : МГЗ, Омм 
MNOR               .Ohmm                                   : МПЗ, Омм 
PHIE               .v/v                                    : Описание 
PHIED              .v/v                                    :  
PHIEN              .v/v                                    : Porosity by NL 
PHIES              .v/v                                    :  
PHIT               .v/v                                    : Описание 
PRMB               .мД                                     :  
PRMB_DGR           .мД                                     :  
RHOB               .G/CM3                                  : ГГКП 
RT                 .ohmm                                   : Description 
SOIL_ARCHIE        .v/v                                    :  
SOIL_DW            .v/v                                    :  
SP                 .мВ                                     : ПС 
VSH_FIN            .v/v                                    : Описание 
VSH_GR             .v/v                                    : Shale volume 
VSH_SP             .v/v                                    : Shale Volume 
~Ascii
# ...
1086.3     0.221608   -9999      -9999      311.3778   10.004     7.094      2.326      2.122      2.044      2.469      2.682      2.71       2.21       2.06       0.1206309  0.05029942 -9999      0.1909624  -9999      0.4803253  7.048882   2.586      2.682      0.1119034  -9999      205.281    0.2922795  0.2922795  0.8       
1086.4     0.222108   -9999      -9999      310.5064   10.699     6.922      2.203      2.015      1.965      2.364      2.553      2.73       2.15       1.96       0.1074475  0.0353293  -9999      0.1795656  -9999      0.2737447  5.421799   2.611      2.553      0          -9999      204.967    0.3253411  0.3253411  0.8       
1086.5     0.223608   -9999      -9999      311.3032   10.604     7.131      2.099      1.92       1.88       2.255      2.403      2.33       2.06       1.84       0.1158463  0.04970066 -9999      0.1819919  -9999      0.3916625  5.619829   2.587      2.403      0.031377   -9999      204.633    0.3206101  0.3206101  0.8       
1086.6     0.223108   -9999      -9999      310.8988   10.949     7.043      2.089      1.902      1.821      2.144      2.254      2.13       1.98       1.82       0.1260348  0.07604791 -9999      0.1760218  -9999      0.6048237  4.933382   2.543      2.254      0.07249564 -9999      204.206    0.3381272  0.3381272  0.8       
1086.7     0.225108   -9999      -9999      315.3561   11.882     7.095      2.04       1.861      1.73       2.037      2.102      1.99       1.88       1.71       0.08257046 0.0003208696 -9999      0.1648201  -9999      0.09474654 3.468466   2.525      2.102      0          -9999      204.024    0.3904434  0.3904434  0.8       
1086.8     0.226108   -9999      -9999      316.1198   11.889     7.055      1.851      1.729      1.614      1.896      1.962      1.81       1.76       1.59       0.08379403 0.002023872 -9999      0.1655642  -9999      0.0998221  3.459308   2.522      1.962      0          -9999      203.694    0.390865   0.390865   0.8       
1086.9     0.237108   -9999      -9999      321.3424   11.721     6.464      1.633      1.551      1.473      1.749      1.843      1.71       1.68       1.51       0.09539697 0.01621438 -9999      0.1745795  -9999      0.1637349  3.685874   2.502      1.843      0          -9999      203.748    0.38087    0.38087    0.8       
1087       0.246008   -9999      -9999      321.1845   11.804     6.397      1.408      1.408      1.369      1.638      1.74       1.66       1.66       1.48       0.1002844  0.02770243 -9999      0.1728665  -9999      0.201683   3.572144   2.481      1.74       0          -9999      203.629    0.3857757  0.3857757  0.8       
1087.1     0.246208   -9999      -9999      323.4255   12.883     5.953      1.241      1.23       1.294      1.563      1.671      1.69       1.66       1.41       0.07744645 0.001452444 -9999      0.1534404  -9999      0.07614723 2.37672    2.499      1.671      0          -9999      203.8      0.4556063  0.4556063  0.8       
1087.2     0.248708   -9999      -9999      321.6891   13.354     5.948      1.157      1.126      1.216      1.499      1.618      1.73       1.61       1.3        0.05293871 -0.03489365 -9999      0.1407711  -9999      0.02677389 1.989465   2.547      1.618      0          -9999      203.851    0.4899256  0.4899256  0.8       
1087.3     0.240008   -9999      -9999      320.3238   12.617     5.825      1.154      1.13       1.169      1.45       1.581      1.77       1.53       1.22       0.05907537 -0.03760492 -9999      0.1557557  -9999      0.03478382 2.627852   2.571      1.581      0          -9999      204.118    0.4372976  0.4372976  0.8       
1087.4     0.242008   -9999      -9999      319.0022   13.044     5.486      1.216      1.19       1.2        1.432      1.563      1.76       1.46       1.2        0.05785841 -0.02922847 -9999      0.1449453  -9999      0.0330245  2.236531   2.546      1.563      0          -9999      204.438    0.4670582  0.4670582  0.8       
1087.5     0.238508   -9999      -9999      316.3578   12.974     5.495999   1.311      1.279      1.273      1.458      1.564      1.76       1.41       1.21       0.06548547 -0.0125487 -9999      0.1435196  -9999      0.04572017 2.296438   2.52       1.564      0          -9999      204.805    0.4620442  0.4620442  0.8       
1087.6     0.232508   -9999      -9999      317.6299   12.861     5.038      1.366      1.344      1.33       1.547      1.587      1.76       1.41       1.22       0.0659496  -0.01557101 -9999      0.1474702  -9999      0.04663422 2.396547   2.528      1.587      0          -9999      205.346    0.4540634  0.4540634  0.8       
1087.7     0.241908   -9999      -9999      315.6475   12.406     4.962      1.402      1.398      1.375      1.617      1.619      1.73       1.48       1.28       0.07035474 -0.01414413 -9999      0.1548536  -9999      0.05627281 2.845796   2.537      1.619      0          -9999      205.655    0.4232993  0.4232993  0.8       
1087.8     0.245708   -9999      -9999      319.3862   12.195     4.791      1.486      1.484      1.452      1.664      1.647      1.69       1.63       1.38       0.08268806 0.002031576 -9999      0.1633445  -9999      0.09522291 3.081816   2.515      1.647      0          -9999      205.937    0.4097491  0.4097491  0.8       
1087.9     0.246508   -9999      -9999      317.9611   11.955     4.655      1.606      1.593      1.546      1.726      1.67       1.71       1.74       1.51       0.09934112 0.03227584 -9999      0.1664064  -9999      0.1937299  3.374161   2.47       1.67       0          -9999      206.346    0.394863   0.394863   0.8       
1088       0.247608   -9999      -9999      321.8473   11.928     4.623      1.626      1.63       1.591      1.764      1.706      1.69       1.76       1.54       0.1037486  0.03623213 -9999      0.1712651  -9999      0.2337945  3.408737   2.464      1.706      0          -9999      206.677    0.3932226  0.3932226  0.8       
1088.1     0.240608   -9999      -9999      320.8221   12.033     4.589      1.59       1.602      1.576      1.77       1.724      1.7        1.77       1.53       0.09787072 0.02762447 -9999      0.168117   -9999      0.1819539  3.276227   2.476      1.724      0          -9999      206.939    0.3996407  0.3996407  0.8       
1088.2     0.233108   -9999      -9999      323.1031   12.953     4.638      1.583      1.584      1.561      1.773      1.726      1.72       1.78       1.54       0.07624661 0.0009559361 -9999      0.1515373  -9999      0.07234862 2.31472    2.498      1.726      0          -9999      207.314    0.4605505  0.4605505  0.8       
1088.3     0.235108   -9999      -9999      322.6115   13.06      4.406      1.609      1.59       1.56       1.783      1.725      1.72       1.77       1.57       0.06913667 -0.01032237 -9999      0.1485957  -9999      0.05342406 2.223058   2.514      1.725      0          -9999      207.375    0.4682119  0.4682119  0.8       
1088.4     0.231508   -9999      -9999      322.9019   12.915     4.439      1.614      1.58       1.548      1.781      1.724      1.73       1.8        1.62       0.06577827 -0.02060374 -9999      0.1521603  -9999      0.04629469 2.348175   2.535      1.724      0          -9999      207.374    0.4578599  0.4578599  0.8       
1088.5     0.229508   -9999      -9999      322.2924   12.567     4.107      1.57       1.528      1.505      1.751      1.717      1.76       1.83       1.64       0.06735212 -0.02428591 -9999      0.1589901  -9999      0.04950883 2.677938   2.55       1.717      0          -9999      207.533    0.4339392  0.4339392  0.8       
1088.6     0.233608   -9999      -9999      321.1297   12.806     4.242      1.515      1.463      1.457      1.707      1.694      1.82       1.9        1.65       0.05905783 -0.03448193 -9999      0.1525976  -9999      0.03475781 2.446841   2.561      1.694      0          -9999      207.478    0.450229   0.450229   0.8       
1088.7     0.239208   -9999      -9999      320.5496   12.836     3.898      1.464      1.409      1.415      1.671      1.67       1.8        1.91       1.64       0.05488358 -0.04153122 -9999      0.1512984  -9999      0.02908943 2.419279   2.572      1.67       0          -9999      207.291    0.4523165  0.4523165  0.8       
