~Version
 VERS              .         2.0                           : CWLS LOG ASCII STANDARD - VERSION 2.0
 WRAP              .         NO                            : ONE LINE PER DEPTH STEP
 DLM               .         SPACE                         : DELIMITING CHARACTER(SPACE TAB OR COMMA)
~Well Information
#_______________________________________________________________________________
#
#PARAMETER_NAME    .UNIT     VALUE                         : DESCRIPTION
#_______________________________________________________________________________
STRT               .M        218.7                         : First reference value
STOP               .M        1168.5                        : Last reference value
STEP               .M        0.1                           : Step increment
NULL               .         -9999                         : Missing value
COMP               .                                       : Company
WELL               .         9671                          : Well name
FLD                .         УЗЕНЬ                         : Field
LOC                .                                       : Location
CNTY               .                                       : County
STAT               .                                       : State
CTRY               .                                       : Country
SRVC               .         AO "UPGF"                     : Service Company
DATE               .         8/2/2018                      : Date
API                .                                       : API number
Block              .         6а                            : 
Cartographic_reference_system .         GCS_WGS_1984                  : ESRI,PE_10_3_1- <?xml version="1.0" encoding="utf-16"?><ILateBoundCoordinateReferenceSystem name="GCS_WGS_1984"><AuthorityCode>EPSG,4326</AuthorityCode></ILateBoundCoordinateReferenceSystem>
Category           .         Нефтяная                      : 
Condition          .         В работе                      : 
Date               .         03.03.2018                    : 
EREF               .m        77.812                        : 
GRP                .                                       : Group name
HZCS               .GCS_WGS_1984 WGS_1984_EASE-Grid_2.0_Global : ESRI,PE_10_3_1- <?xml version="1.0" encoding="utf-16"?><ILateBoundCoordinateReferenceSystem name="WGS_1984_EASE-Grid_2.0_Global"><AuthorityCode>EPSG,6933</AuthorityCode></ILateBoundCoordinateReferenceSystem>
ISS                .                                       : Well surUveys
Interpretator      .         Ким С.В.                      : 
LATI               .dega     0.6667519455                  : GCS_WGS_1984
LONG               .dega     0.4550595161                  : GCS_WGS_1984
Mud                .         калий-хлор                    : 
Mud_density        .         1.34                          : 
Mud_resistivity    .         0.03                          : 
NGDU               .         НГДУ-2                        : 
SPDA               .         08/02/2018                    : 
TIME               .                                       : LOG TIME
Viscosity          .         45                            : 
X                  .m        43907.00                      : 
Y                  .m        85057.87                      : 
YEAR               .         2018                          : 
~Parameter Information Block
#_______________________________________________________________________________
#
#PARAMETER_NAME    .UNIT     VALUE                         : DESCRIPTION
#_______________________________________________________________________________
SET                .         LQC_KAZNIPI_Petrel            : 
TLFamily_CALI      .         Caliper                       : 
TLFamily_COLL      .         Net Reservoir Flag            : 
TLFamily_CSAT      .         Fluid Code                    : 
TLFamily_DEPT      .         Measured Depth                : 
TLFamily_DT        .         Compressional Slowness        : 
TLFamily_GR        .         Russian Gamma Ray             : 
TLFamily_GZ3       .         Gradient 225                  : 
TLFamily_IK1       .         Resistivity 05                : 
TLFamily_IK2       .         Resistivity 07                : 
TLFamily_IK3       .         Resistivity 10                : 
TLFamily_IK4       .         Resistivity 14                : 
TLFamily_IK5       .         Resistivity 20                : 
TLFamily_LLS       .         Lateral Log Resistivity       : 
TLFamily_MINV      .         Micro Gradient Resistivity    : 
TLFamily_MNOR      .         Micro Resistivity             : 
TLFamily_PHIE      .         Effective Porosity            : 
TLFamily_PHIED     .         Effective Porosity            : 
TLFamily_PHIEN     .         Effective Porosity            : 
TLFamily_PHIES     .         Effective Porosity            : 
TLFamily_PHIT      .         Porosity                      : 
TLFamily_PRMB      .         Permeability                  : 
TLFamily_PRMB_DGR  .         Permeability                  : 
TLFamily_RHOB      .         Bulk Density                  : 
TLFamily_RT        .         Formation Resistivity         : 
TLFamily_SOIL_ARCHIE .         Oil Saturation                : 
TLFamily_SOIL_DW   .         Oil Saturation                : 
TLFamily_SP        .         Spontaneous Potential         : 
TLFamily_VSH_FIN   .         Shale Volume                  : 
TLFamily_VSH_GR    .         Shale Volume                  : 
TLFamily_VSH_SP    .         Shale Volume                  : 
~Curve Information
#_______________________________________________________________________________
#
#LOGNAME           .UNIT     LOG_ID                        : DESCRIPTION
#_______________________________________________________________________________
DEPT               .M                                      : Depth curve 
CALI               .M                                      : Кавернометрия 
COLL               .unitless                               : Описание 
CSAT               .unitless                               : Описание 
DT                 .мкс/м                                  : 1 ДельтаТ - Волна по 
GR                 .uR/h                                   : ГК 
GZ3                .Ohmm                                   : A2.0M0.5N 
IK1                .Ohmm                                   : И0.10И0.40 
IK2                .Ohmm                                   : И0.14И0.56 
IK3                .Ohmm                                   : И0.20И0.8 
IK4                .Ohmm                                   : И0.28И1.12 
IK5                .Ohmm                                   : И0.40И1.60 
LLS                .Ohmm                                   : БК, Омм 
MINV               .Ohmm                                   : МГЗ, Омм 
MNOR               .Ohmm                                   : МПЗ, Омм 
PHIE               .v/v                                    : Описание 
PHIED              .v/v                                    :  
PHIEN              .v/v                                    : Porosity by NL 
PHIES              .v/v                                    :  
PHIT               .v/v                                    : Описание 
PRMB               .мД                                     :  
PRMB_DGR           .мД                                     :  
RHOB               .G/CM3                                  : ГГКП 
RT                 .ohmm                                   : Description 
SOIL_ARCHIE        .v/v                                    :  
SOIL_DW            .v/v                                    :  
SP                 .мВ                                     : ПС 
VSH_FIN            .v/v                                    : Описание 
VSH_GR             .v/v                                    : Shale volume 
VSH_SP             .v/v                                    : Shale Volume 
~Ascii
# ...
1046.4     0.223208   -9999      -9999      321.1183   12.151     2.94       1.707      1.571      1.445      1.732      1.731      2.14       2.32       1.78       0.07459708 -0.0002056926 -9999      0.1493998  -9999      0.06743368 2.316724   2.5        1.731      0          -9999      204.236    0.4603879  0.4603879  0.8       
1046.5     0.223508   -9999      -9999      323.8824   11.408     2.97       1.597      1.475      1.387      1.654      1.666      1.57       1.95       1.47       0.09347921 0.01873323 -9999      0.1682252  -9999      0.1508759  3.07643    2.487      1.666      0          -9999      204.733    0.4100419  0.4100419  0.8       
1046.6     0.227908   -9999      -9999      325.8607   11.795     2.928      1.489      1.395      1.332      1.575      1.592      1.46       1.67       1.3        0.08593386 0.009491729 -9999      0.162376   -9999      0.1093608  2.65394    2.493      1.592      0          -9999      205.118    0.4355372  0.4355372  0.8       
1046.7     0.239908   -9999      -9999      330.5654   12.1       2.904      1.428      1.36       1.301      1.519      1.525      1.42       1.61       1.22       0.07736961 -0.005984848 -9999      0.1607241  -9999      0.0758981  2.362266   2.511      1.525      0          -9999      205.499    0.4567426  0.4567426  0.8       
1046.8     0.240308   -9999      -9999      332.4619   12.827     2.831      1.383      1.339      1.285      1.496      1.479      1.4        1.61       1.17       0.06489217 -0.01573156 -9999      0.1455159  -9999      0.04457777 1.789816   2.507      1.479      0          -9999      205.96     0.5115452  0.5115452  0.8       
1046.9     0.241308   -9999      -9999      334.2      12.813     3.025      1.358      1.339      1.291      1.494      1.454      1.34       1.6        1.15       0.06758227 -0.01249057 -9999      0.1476551  -9999      0.0499972  1.799407   2.502      1.454      0          -9999      205.94     0.5104302  0.5104302  0.8       
1047       0.232108   -9999      -9999      333.7725   13.257     2.896      1.322      1.335      1.291      1.493      1.439      1.31       1.54       1.14       0.06146974 -0.0128097 -9999      0.1357492  -9999      0.03852358 1.518881   2.489      1.439      0          -9999      206.013    0.5470057  0.5470057  0.8       
1047.1     0.234508   -9999      -9999      332.0124   13.213     2.856      1.307      1.293      1.26       1.484      1.426      1.3        1.52       1.16       0.0621603  -0.01078373 -9999      0.1351043  -9999      0.03967506 1.544607   2.487      1.426      0          -9999      206.046    0.5432671  0.5432671  0.8       
1047.2     0.244208   -9999      -9999      329.8837   14.098     2.87       1.301      1.258      1.234      1.465      1.415      1.34       1.55       1.18       0.04134662 -0.02499404 -9999      0.1076873  -9999      0.01633044 1.101805   2.481      1.415      0          -9999      205.752    0.6236219  0.6236219  0.8       
1047.3     0.230508   -9999      -9999      326.7952   14.233     2.708      1.278      1.227      1.192      1.449      1.406      1.32       1.53       1.18       0.03286647 -0.03451911 -9999      0.1002521  -9999      0.01137431 1.046465   2.492      1.406      0          -9999      205.589    0.6368833  0.6368833  0.8       
1047.4     0.239608   -9999      -9999      325.3969   14.055     2.713      1.258      1.201      1.161      1.43       1.401      1.31       1.51       1.18       0.03707623 -0.03005911 -9999      0.1042116  -9999      0.0136113  1.120039   2.491      1.401      0          -9999      205.268    0.6194562  0.6194562  0.8       
1047.5     0.233308   -9999      -9999      323.7636   13.924     2.728      1.252      1.198      1.161      1.404      1.402      1.31       1.52       1.19       0.04672479 -0.01291395 -9999      0.1063635  -9999      0.02054066 1.177471   2.467      1.402      0          -9999      205.11     0.6069359  0.6069359  0.8       
1047.6     0.235508   -9999      -9999      324.4041   13.761     2.833      1.273      1.22       1.178      1.398      1.407      1.32       1.54       1.18       0.05863225 0.005429567 -9999      0.1118349  -9999      0.03413261 1.25306    2.442      1.407      0          -9999      204.804    0.59171    0.59171    0.8       
1047.7     0.229208   -9999      -9999      325.1706   13.89      2.767      1.299      1.24       1.197      1.419      1.419      1.33       1.54       1.17       0.05493433 0.0009704839 -9999      0.1088982  -9999      0.02915246 1.192852   2.445      1.419      0          -9999      204.377    0.603728   0.603728   0.8       
1047.8     0.227608   -9999      -9999      326.2528   14.086     2.756      1.312      1.256      1.217      1.458      1.44       1.35       1.55       1.21       0.03553706 -0.03311906 -9999      0.1041932  -9999      0.01274649 1.106864   2.495      1.44       0          -9999      203.741    0.6224566  0.6224566  0.8       
1047.9     0.224708   -9999      -9999      327.4928   14.432     2.604      1.341      1.286      1.243      1.501      1.468      1.39       1.6        1.28       0.01290121 -0.06890458 -9999      0.09470699 -9999      0.004854222 0.969918   2.542      1.468      0          -9999      203.174    0.6569476  0.6569476  0.8       
1048       0.223008   -9999      -9999      326.5879   14.128     2.591      1.391      1.329      1.276      1.541      1.534      1.4        1.62       1.33       0.01546149 -0.07234827 -9999      0.1032712  -9999      0.0054143  1.08926    2.559      1.534      0          -9999      202.92     0.6265448  0.6265448  0.8       
1048.1     0.224308   -9999      -9999      326.0061   13.822     2.676      1.439      1.373      1.31       1.585      1.594      1.47       1.64       1.4        0.02714794 -0.05749959 -9999      0.1117955  -9999      0.008912588 1.22422    2.545      1.594      0          -9999      202.827    0.5973628  0.5973628  0.8       
1048.2     0.223908   -9999      -9999      322.5293   13.455     2.648      1.485      1.414      1.347      1.623      1.642      1.52       1.68       1.47       0.04312433 -0.03217712 -9999      0.1184258  -9999      0.01761673 1.408315   2.515      1.642      0          -9999      202.721    0.5641505  0.5641505  0.8       
1048.3     0.224108   -9999      -9999      319.4515   13.157     2.576      1.537      1.458      1.395      1.655      1.678      1.63       1.73       1.54       0.05275709 -0.01752211 -9999      0.1230363  -9999      0.0265673  1.577981   2.5        1.678      0          -9999      202.848    0.5385457  0.5385457  0.8       
1048.4     0.224508   -9999      -9999      315.2388   13.467     2.678      1.579      1.494      1.436      1.685      1.697      1.72       1.8        1.63       0.04442887 -0.02103385 -9999      0.1098916  -9999      0.01862466 1.401879   2.496      1.697      0          -9999      203.038    0.5652067  0.5652067  0.8       
1048.5     0.224708   -9999      -9999      311.2109   13.078     2.639      1.592      1.506      1.457      1.713      1.708      1.8        1.82       1.66       0.04438993 -0.02684026 -9999      0.1156201  -9999      0.01859376 1.626291   2.518      1.708      0          -9999      202.794    0.531955   0.531955   0.8       
1048.6     0.224108   -9999      -9999      309.0725   12.696     2.728      1.588      1.504      1.466      1.738      1.71       1.75       1.8        1.6        0.04715325 -0.02841097 -9999      0.1227175  -9999      0.02091946 1.881591   2.532      1.71       0          -9999      203.213    0.5012061  0.5012061  0.8       
1048.7     0.225108   -9999      -9999      307.1937   12.617     2.846      1.578      1.499      1.467      1.752      1.707      1.69       1.78       1.55       0.04616545 -0.03004591 -9999      0.1223768  -9999      0.02005646 1.939196   2.537      1.707      0          -9999      203.366    0.4950722  0.4950722  0.8       
1048.8     0.224608   -9999      -9999      308.121    13.146     2.708      1.569      1.494      1.468      1.757      1.703      1.68       1.8        1.5        0.03174881 -0.04665904 -9999      0.1101567  -9999      0.01084484 1.58462    2.549      1.703      0          -9999      203.574    0.5376232  0.5376232  0.8       
