~Version
 VERS              .         2.0                           : CWLS LOG ASCII STANDARD - VERSION 2.0
 WRAP              .         NO                            : ONE LINE PER DEPTH STEP
 DLM               .         SPACE                         : DELIMITING CHARACTER(SPACE TAB OR COMMA)
~Well Information
#_______________________________________________________________________________
#
#PARAMETER_NAME    .UNIT     VALUE                         : DESCRIPTION
#_______________________________________________________________________________
STRT               .M        218.7                         : First reference value
STOP               .M        1168.5                        : Last reference value
STEP               .M        0.1                           : Step increment
NULL               .         -9999                         : Missing value
COMP               .                                       : Company
WELL               .         9671                          : Well name
FLD                .         УЗЕНЬ                         : Field
LOC                .                                       : Location
CNTY               .                                       : County
STAT               .                                       : State
CTRY               .                                       : Country
SRVC               .         AO "UPGF"                     : Service Company
DATE               .         8/2/2018                      : Date
API                .                                       : API number
Block              .         6а                            : 
Cartographic_reference_system .         GCS_WGS_1984                  : ESRI,PE_10_3_1- <?xml version="1.0" encoding="utf-16"?><ILateBoundCoordinateReferenceSystem name="GCS_WGS_1984"><AuthorityCode>EPSG,4326</AuthorityCode></ILateBoundCoordinateReferenceSystem>
Category           .         Нефтяная                      : 
Condition          .         В работе                      : 
Date               .         03.03.2018                    : 
EREF               .m        77.812                        : 
GRP                .                                       : Group name
HZCS               .GCS_WGS_1984 WGS_1984_EASE-Grid_2.0_Global : ESRI,PE_10_3_1- <?xml version="1.0" encoding="utf-16"?><ILateBoundCoordinateReferenceSystem name="WGS_1984_EASE-Grid_2.0_Global"><AuthorityCode>EPSG,6933</AuthorityCode></ILateBoundCoordinateReferenceSystem>
ISS                .                                       : Well surUveys
Interpretator      .         Ким С.В.                      : 
LATI               .dega     0.6667519455                  : GCS_WGS_1984
LONG               .dega     0.4550595161                  : GCS_WGS_1984
Mud                .         калий-хлор                    : 
Mud_density        .         1.34                          : 
Mud_resistivity    .         0.03                          : 
NGDU               .         НГДУ-2                        : 
SPDA               .         08/02/2018                    : 
TIME               .                                       : LOG TIME
Viscosity          .         45                            : 
X                  .m        43907.00                      : 
Y                  .m        85057.87                      : 
YEAR               .         2018                          : 
~Parameter Information Block
#_______________________________________________________________________________
#
#PARAMETER_NAME    .UNIT     VALUE                         : DESCRIPTION
#_______________________________________________________________________________
SET                .         LQC_KAZNIPI_Petrel            : 
TLFamily_CALI      .         Caliper                       : 
TLFamily_COLL      .         Net Reservoir Flag            : 
TLFamily_CSAT      .         Fluid Code                    : 
TLFamily_DEPT      .         Measured Depth                : 
TLFamily_DT        .         Compressional Slowness        : 
TLFamily_GR        .         Russian Gamma Ray             : 
TLFamily_GZ3       .         Gradient 225                  : 
TLFamily_IK1       .         Resistivity 05                : 
TLFamily_IK2       .         Resistivity 07                : 
TLFamily_IK3       .         Resistivity 10                : 
TLFamily_IK4       .         Resistivity 14                : 
TLFamily_IK5       .         Resistivity 20                : 
TLFamily_LLS       .         Lateral Log Resistivity       : 
TLFamily_MINV      .         Micro Gradient Resistivity    : 
TLFamily_MNOR      .         Micro Resistivity             : 
TLFamily_PHIE      .         Effective Porosity            : 
TLFamily_PHIED     .         Effective Porosity            : 
TLFamily_PHIEN     .         Effective Porosity            : 
TLFamily_PHIES     .         Effective Porosity            : 
TLFamily_PHIT      .         Porosity                      : 
TLFamily_PRMB      .         Permeability                  : 
TLFamily_PRMB_DGR  .         Permeability                  : 
TLFamily_RHOB      .         Bulk Density                  : 
TLFamily_RT        .         Formation Resistivity         : 
TLFamily_SOIL_ARCHIE .         Oil Saturation                : 
TLFamily_SOIL_DW   .         Oil Saturation                : 
TLFamily_SP        .         Spontaneous Potential         : 
TLFamily_VSH_FIN   .         Shale Volume                  : 
TLFamily_VSH_GR    .         Shale Volume                  : 
TLFamily_VSH_SP    .         Shale Volume                  : 
~Curve Information
#_______________________________________________________________________________
#
#LOGNAME           .UNIT     LOG_ID                        : DESCRIPTION
#_______________________________________________________________________________
DEPT               .M                                      : Depth curve 
CALI               .M                                      : Кавернометрия 
COLL               .unitless                               : Описание 
CSAT               .unitless                               : Описание 
DT                 .мкс/м                                  : 1 ДельтаТ - Волна по 
GR                 .uR/h                                   : ГК 
GZ3                .Ohmm                                   : A2.0M0.5N 
IK1                .Ohmm                                   : И0.10И0.40 
IK2                .Ohmm                                   : И0.14И0.56 
IK3                .Ohmm                                   : И0.20И0.8 
IK4                .Ohmm                                   : И0.28И1.12 
IK5                .Ohmm                                   : И0.40И1.60 
LLS                .Ohmm                                   : БК, Омм 
MINV               .Ohmm                                   : МГЗ, Омм 
MNOR               .Ohmm                                   : МПЗ, Омм 
PHIE               .v/v                                    : Описание 
PHIED              .v/v                                    :  
PHIEN              .v/v                                    : Porosity by NL 
PHIES              .v/v                                    :  
PHIT               .v/v                                    : Описание 
PRMB               .мД                                     :  
PRMB_DGR           .мД                                     :  
RHOB               .G/CM3                                  : ГГКП 
RT                 .ohmm                                   : Description 
SOIL_ARCHIE        .v/v                                    :  
SOIL_DW            .v/v                                    :  
SP                 .мВ                                     : ПС 
VSH_FIN            .v/v                                    : Описание 
VSH_GR             .v/v                                    : Shale volume 
VSH_SP             .v/v                                    : Shale Volume 
~Ascii
# ...
1066.4     0.226008   -9999      -9999      287.2837   12.664     3.188      1.621      1.588      1.593      1.828      1.772      1.8        1.68       1.64       0.04936408 -0.01495629 -9999      0.1136844  -9999      0.02298796 2.581625   2.532      1.772      0          -9999      206.356    0.4404782  0.4404782  0.8       
1066.5     0.228008   -9999      -9999      280.4886   11.861     3.208      1.757      1.715      1.701      1.933      1.846      2.04       1.76       1.71       0.05317489 -0.01377069 -9999      0.1201205  -9999      0.02704494 3.496079   2.549      1.846      0          -9999      206.416    0.3891812  0.3891812  0.8       
1066.6     0.226208   -9999      -9999      274.3492   11.294     3.245      1.864      1.813      1.781      2.011      1.904      2.01       1.85       1.71       0.09353824 0.0658683  -9999      0.1212082  -9999      0.1512562  4.330783   2.56       1.904      0          -9999      206.062    0.3566012  0.3566012  0.8       
1066.7     0.226008   -9999      -9999      273.822    11.339     3.087      1.89       1.82       1.781      2.026      1.93       1.9        1.86       1.72       0.0951428  0.07065865 -9999      0.1196269  -9999      0.1619696  4.257813   2.552      1.93       0          -9999      205.728    0.3590842  0.3590842  0.8       
1066.8     0.225908   -9999      -9999      270.8176   11.274     3.172      1.829      1.734      1.707      1.978      1.926      1.76       1.82       1.67       0.1017699  0.08742519 -9999      0.1161147  -9999      0.2148742  4.363613   2.524      1.926      0          -9999      205.412    0.3555032  0.3555032  0.8       
1066.9     0.233008   -9999      -9999      275.985    11.508     2.934      1.729      1.647      1.641      1.932      1.923      1.71       1.77       1.61       0.1096651  0.09940123 -9999      0.1199289  -9999      0.3008992  3.994583   2.504      1.923      0          -9999      204.769    0.3685643  0.3685643  0.8       
1067       0.230908   -9999      -9999      272.4999   11.886     3.18       1.926      1.663      1.674      1.954      1.957      1.83       1.96       1.83       0.06655476 0.02541723 -9999      0.1076923  -9999      0.0478535  3.463231   2.483      1.957      0          -9999      204.382    0.3906843  0.3906843  0.8       
1067.1     0.238908   -9999      -9999      276.444    11.375     2.933      2.322      1.993      1.816      2.085      2.039      2.14       2.17       2.13       0.115673   0.1083832  -9999      0.1229628  -9999      0.3887792  4.200325   2.489      2.039      0          -9999      203.824    0.3610829  0.3610829  0.8       
1067.2     0.225908   -9999      -9999      270.3341   10.667     3.19       2.46       2.179      2.003      2.263      2.174      2.57       2.19       2.22       0.106671   0.08802395 -9999      0.125318   -9999      0.2648278  5.487713   2.523      2.174      0          -9999      203.532    0.3237397  0.3237397  0.8       
1067.3     0.224008   -9999      -9999      271.0244   10.36      2.997      2.256      2.016      1.986      2.42       2.325      2.58       2.04       2.13       0.1020713  0.07305384 -9999      0.1310887  -9999      0.2176535  6.162232   2.548      2.325      0          -9999      203.196    0.3087719  0.3087719  0.8       
1067.4     0.223408   -9999      -9999      266.2878   10.728     3.09       2.079      1.916      1.919      2.487      2.435      2.37       1.93       2.05       0.09040135 0.06287422 -9999      0.1179285  -9999      0.1323154  5.362751   2.565      2.435      0          -9999      202.871    0.3267991  0.3267991  0.8       
1067.5     0.224708   -9999      -9999      267.3786   10.141     3.361      2.115      1.994      2.017      2.484      2.509      2.28       1.92       2.14       0.09780671 0.06706581 -9999      0.1285476  -9999      0.1814578  6.693495   2.558      2.509      0          -9999      202.757    0.2985194  0.2985194  0.8       
1067.6     0.223008   -9999      -9999      265.9772   10.181     3.306      2.392      2.283      2.266      2.692      2.583      2.61       2.12       2.37       0.09040207 0.05508978 -9999      0.1257143  -9999      0.1323194  6.593151   2.578      2.583      0          -9999      202.814    0.3003663  0.3003663  0.8       
1067.7     0.223308   -9999      -9999      267.668    9.975      3.52       2.745      2.579      2.495      2.95       2.722      3.18       2.28       2.51       0.08604699 0.04071856 -9999      0.1313754  -9999      0.1098897  7.126496   2.602      2.722      0          -9999      203.204    0.2909755  0.2909755  0.8       
1067.8     0.222708   -9999      -9999      266.6523   9.103      3.471      2.865      2.642      2.513      3.01       2.874      3.63       2.26       2.42       0.08887594 0.03652697 -9999      0.1412249  -9999      0.1239813  9.905581   2.609      2.874      0          -9999      203.386    0.2543684  0.2543684  0.8       
1067.9     0.223408   -9999      -9999      266.1047   8.588      3.752      2.57       2.402      2.333      2.89       2.939      3.37       2.09       2.21       0.09926299 0.05209584 -9999      0.1464301  -9999      0.1930854  12.03199   2.583      2.939      0          -9999      203.736    0.2349505  0.2349505  0.8       
1068       0.223708   -9999      -9999      263.8932   8.321      3.9        2.307      2.169      2.166      2.749      2.836      2.86       2.03       2.1        0.1088274  0.07185631 -9999      0.1457986  -9999      0.2903396  13.30834   2.55       2.836      0.05369538 -9999      203.862    0.2254742  0.2254742  0.8       
1068.1     0.223208   -9999      -9999      261.1056   9          3.982      2.266      2.122      2.121      2.676      2.744      2.67       2.07       2.09       0.1029114  0.07245508 -9999      0.1333676  -9999      0.2255932  10.29844   2.549      2.744      0          -9999      204.257    0.2503605  0.2503605  0.8       
1068.2     0.224008   -9999      -9999      259.3894   9.263      4.224      2.293      2.183      2.164      2.682      2.736      2.56       2.12       2.09       0.09684369 0.06646705 -9999      0.1272203  -9999      0.1741559  9.324821   2.559      2.736      0          -9999      204.904    0.2607219  0.2607219  0.8       
1068.3     0.223608   -9999      -9999      257.3719   9.038      4.2        2.418      2.334      2.265      2.729      2.773      2.55       2.23       2.16       0.09171829 0.0568862  -9999      0.1265504  -9999      0.1399598  10.15171   2.575      2.773      0          -9999      205.182    0.2518318  0.2518318  0.8       
1068.4     0.223808   -9999      -9999      258.9655   9.123      4.536      2.633      2.499      2.334      2.753      2.787      2.88       2.53       2.29       0.08867286 0.04910176 -9999      0.128244   -9999      0.1229121  9.831048   2.588      2.787      0          -9999      205.711    0.2551541  0.2551541  0.8       
1068.5     0.223808   -9999      -9999      260.2953   9.281      4.436      2.53       2.407      2.231      2.694      2.74       3.06       2.38       2.14       0.08641969 0.0443114  -9999      0.128528   -9999      0.1116504  9.261657   2.596      2.74       0          -9999      206.045    0.2614466  0.2614466  0.8       
1068.6     0.223308   -9999      -9999      265.9363   9.71       4.785999   2.291      2.131      2.03       2.563      2.653      2.96       2.27       2.03       0.09007465 0.04790424 -9999      0.1322451  -9999      0.1304846  7.876527   2.59       2.653      0          -9999      206.73     0.2793256  0.2793256  0.8       
1068.7     0.223308   -9999      -9999      269.4902   10         4.8        2.056      1.893      1.878      2.424      2.577      2.62       2.18       1.98       0.09779489 0.0616767  -9999      0.1339131  -9999      0.1813663  7.059533   2.567      2.577      0          -9999      206.977    0.2920993  0.2920993  0.8       
1068.8     0.225008   -9999      -9999      274.9648   9.949      4.913      1.943      1.781      1.791      2.355      2.537      2.41       2.15       2          0.1083675  0.07365274 -9999      0.1430823  -9999      0.2846999  7.196806   2.547      2.537      0          -9999      207.366    0.2898113  0.2898113  0.8       
