~Version
 VERS              .         2.0                           : CWLS LOG ASCII STANDARD - VERSION 2.0
 WRAP              .         NO                            : ONE LINE PER DEPTH STEP
 DLM               .         SPACE                         : DELIMITING CHARACTER(SPACE TAB OR COMMA)
~Well Information
#_______________________________________________________________________________
#
#PARAMETER_NAME    .UNIT     VALUE                         : DESCRIPTION
#_______________________________________________________________________________
STRT               .M        218.7                         : First reference value
STOP               .M        1168.5                        : Last reference value
STEP               .M        0.1                           : Step increment
NULL               .         -9999                         : Missing value
COMP               .                                       : Company
WELL               .         9671                          : Well name
FLD                .         УЗЕНЬ                         : Field
LOC                .                                       : Location
CNTY               .                                       : County
STAT               .                                       : State
CTRY               .                                       : Country
SRVC               .         AO "UPGF"                     : Service Company
DATE               .         8/2/2018                      : Date
API                .                                       : API number
Block              .         6а                            : 
Cartographic_reference_system .         GCS_WGS_1984                  : ESRI,PE_10_3_1- <?xml version="1.0" encoding="utf-16"?><ILateBoundCoordinateReferenceSystem name="GCS_WGS_1984"><AuthorityCode>EPSG,4326</AuthorityCode></ILateBoundCoordinateReferenceSystem>
Category           .         Нефтяная                      : 
Condition          .         В работе                      : 
Date               .         03.03.2018                    : 
EREF               .m        77.812                        : 
GRP                .                                       : Group name
HZCS               .GCS_WGS_1984 WGS_1984_EASE-Grid_2.0_Global : ESRI,PE_10_3_1- <?xml version="1.0" encoding="utf-16"?><ILateBoundCoordinateReferenceSystem name="WGS_1984_EASE-Grid_2.0_Global"><AuthorityCode>EPSG,6933</AuthorityCode></ILateBoundCoordinateReferenceSystem>
ISS                .                                       : Well surUveys
Interpretator      .         Ким С.В.                      : 
LATI               .dega     0.6667519455                  : GCS_WGS_1984
LONG               .dega     0.4550595161                  : GCS_WGS_1984
Mud                .         калий-хлор                    : 
Mud_density        .         1.34                          : 
Mud_resistivity    .         0.03                          : 
NGDU               .         НГДУ-2                        : 
SPDA               .         08/02/2018                    : 
TIME               .                                       : LOG TIME
Viscosity          .         45                            : 
X                  .m        43907.00                      : 
Y                  .m        85057.87                      : 
YEAR               .         2018                          : 
~Parameter Information Block
#_______________________________________________________________________________
#
#PARAMETER_NAME    .UNIT     VALUE                         : DESCRIPTION
#_______________________________________________________________________________
SET                .         LQC_KAZNIPI_Petrel            : 
TLFamily_CALI      .         Caliper                       : 
TLFamily_COLL      .         Net Reservoir Flag            : 
TLFamily_CSAT      .         Fluid Code                    : 
TLFamily_DEPT      .         Measured Depth                : 
TLFamily_DT        .         Compressional Slowness        : 
TLFamily_GR        .         Russian Gamma Ray             : 
TLFamily_GZ3       .         Gradient 225                  : 
TLFamily_IK1       .         Resistivity 05                : 
TLFamily_IK2       .         Resistivity 07                : 
TLFamily_IK3       .         Resistivity 10                : 
TLFamily_IK4       .         Resistivity 14                : 
TLFamily_IK5       .         Resistivity 20                : 
TLFamily_LLS       .         Lateral Log Resistivity       : 
TLFamily_MINV      .         Micro Gradient Resistivity    : 
TLFamily_MNOR      .         Micro Resistivity             : 
TLFamily_PHIE      .         Effective Porosity            : 
TLFamily_PHIED     .         Effective Porosity            : 
TLFamily_PHIEN     .         Effective Porosity            : 
TLFamily_PHIES     .         Effective Porosity            : 
TLFamily_PHIT      .         Porosity                      : 
TLFamily_PRMB      .         Permeability                  : 
TLFamily_PRMB_DGR  .         Permeability                  : 
TLFamily_RHOB      .         Bulk Density                  : 
TLFamily_RT        .         Formation Resistivity         : 
TLFamily_SOIL_ARCHIE .         Oil Saturation                : 
TLFamily_SOIL_DW   .         Oil Saturation                : 
TLFamily_SP        .         Spontaneous Potential         : 
TLFamily_VSH_FIN   .         Shale Volume                  : 
TLFamily_VSH_GR    .         Shale Volume                  : 
TLFamily_VSH_SP    .         Shale Volume                  : 
~Curve Information
#_______________________________________________________________________________
#
#LOGNAME           .UNIT     LOG_ID                        : DESCRIPTION
#_______________________________________________________________________________
DEPT               .M                                      : Depth curve 
CALI               .M                                      : Кавернометрия 
COLL               .unitless                               : Описание 
CSAT               .unitless                               : Описание 
DT                 .мкс/м                                  : 1 ДельтаТ - Волна по 
GR                 .uR/h                                   : ГК 
GZ3                .Ohmm                                   : A2.0M0.5N 
IK1                .Ohmm                                   : И0.10И0.40 
IK2                .Ohmm                                   : И0.14И0.56 
IK3                .Ohmm                                   : И0.20И0.8 
IK4                .Ohmm                                   : И0.28И1.12 
IK5                .Ohmm                                   : И0.40И1.60 
LLS                .Ohmm                                   : БК, Омм 
MINV               .Ohmm                                   : МГЗ, Омм 
MNOR               .Ohmm                                   : МПЗ, Омм 
PHIE               .v/v                                    : Описание 
PHIED              .v/v                                    :  
PHIEN              .v/v                                    : Porosity by NL 
PHIES              .v/v                                    :  
PHIT               .v/v                                    : Описание 
PRMB               .мД                                     :  
PRMB_DGR           .мД                                     :  
RHOB               .G/CM3                                  : ГГКП 
RT                 .ohmm                                   : Description 
SOIL_ARCHIE        .v/v                                    :  
SOIL_DW            .v/v                                    :  
SP                 .мВ                                     : ПС 
VSH_FIN            .v/v                                    : Описание 
VSH_GR             .v/v                                    : Shale volume 
VSH_SP             .v/v                                    : Shale Volume 
~Ascii
# ...
1123.3     0.216508   1          2          318.7906   12.06      6.96       1.729      1.701      1.874      2.364      2.73       2.48       0.64       1.08       0.214642   0.2083832  0.267      0.2209008  0.2106916  26.47576   13.51803   2.322      2.73       0.4668077  0.4703233  208.179    0.2240395  0.2240395  0.8       
1123.4     0.216408   1          2          318.7716   12.219     6.655      1.693      1.704      1.899      2.365      2.73       2.41       0.51       0.95       0.2181298  0.2191617  0.254      0.2170978  0.2175809  30.72206   11.88891   2.304      2.73       0.4742406  0.4870944  208.317    0.236101   0.236101   0.8       
1123.5     0.216208   1          2          317.2162   12.568     6.626      1.679      1.726      1.935      2.363      2.706      2.38       0.46       0.9        0.2124355  0.2185628  0.248      0.2063082  0.2067814  24.0979    8.968607   2.305      2.706      0.4597536  0.4579192  208.458    0.2649017  0.2649017  0.8       
1123.6     0.215108   1          2          315.9727   11.941     6.164      1.698      1.778      1.984      2.375      2.666      2.38       0.46       0.91       0.2128966  0.2053893  0.283      0.2204039  0.2061946  24.57643   14.88176   2.327      2.666      0.4569911  0.4523135  208.531    0.2154171  0.2154171  0.8       
1123.7     0.215708   1          2          313.8644   12.233     5.95       1.761      1.854      2.04       2.389      2.628      2.35       0.44       0.89       0.2070691  0.202994   0.263      0.2111443  0.201497   19.16815   11.75524   2.331      2.628      0.4399451  0.4355074  208.93     0.2371936  0.2371936  0.8       
1123.8     0.215508   1          2          312.2772   12.466     5.821      1.828      1.902      2.061      2.385      2.571      2.39       0.42       0.87       0.2082627  0.2131737  0.155      0.2033518  0.2105869  20.16923   9.738748   2.314      2.571      0.436978   0.4512806  209.213    0.2561388  0.2561388  0.8       
1123.9     0.216708   1          2          311.3453   12.531     5.887001   1.808      1.849      2.016      2.342      2.499      2.33       0.42       0.86       0.2107366  0.220958   0.157      0.2005151  0.216479   22.41354   9.240664   2.301      2.499      0.4352612  0.4548625  209.082    0.2616889  0.2616889  0.8       
1124       0.212708   1          2          309.5594   13.008     5.926      1.71       1.732      1.925      2.278      2.42       2.26       0.43       0.87       0.1984962  0.2125748  0.149      0.1844176  0.2027874  13.2981    6.286203   2.315      2.42       0.3960121  0.4100406  209.008    0.3062707  0.3062707  0.8       
1124.1     0.214008   1          2          309.858    13.273     5.519      1.705      1.704      1.88       2.231      2.351      2.27       0.44       0.88       0.190996   0.205988   0.185      0.1760039  0.190994   9.657543   5.074999   2.326      2.351      0.3668701  0.3703585  209.114    0.334242   0.334242   0.8       
1124.2     0.213208   1          2          307.7482   13.339     5.462      1.767      1.742      1.882      2.199      2.268      2.3        0.45       0.88       0.188278   0.2053893  0.162      0.1711667  0.1776946  8.600501   4.811555   2.327      2.268      0.3480127  0.3109613  209.364    0.3415971  0.3415971  0.8       
1124.3     0.211808   1          2          308.2705   13.35      5.428999   1.803      1.746      1.848      2.128      2.17       2.34       0.45       0.85       0.1833084  0.1952095  0.165      0.1714074  0.1716048  6.95785    4.768996   2.344      2.17       0.3186674  0.2705756  209.528    0.3428387  0.3428387  0.8       
1124.4     0.211508   1          2          306.2534   14.32      5.1        1.75       1.651      1.703      1.969      2.037      2.37       0.45       0.84       0.09934813 0.07025624 0.124      0.12844    0.08362812 0.1937878  2.17864    2.378      2.037      0          0          209.261    0.4720866  0.4720866  0.8       
1124.5     0.210808   1          2          306.5318   14.051     4.983      1.484      1.373      1.428      1.735      1.851      2.33       0.49       0.85       0.10036    0.05937517 0.149      0.1413448  0.08318758 0.2023338  2.70733    2.411      1.851      0          0          208.994    0.4320093  0.4320093  0.8       
1124.6     0.216508   -9999      -9999      305.3022   13.1       4.773      1.22       1.143      1.21       1.519      1.702      2.12       0.55       0.84       0.1698896  0.163473   0.264      0.1763063  0.1577365  3.925782   5.836039   2.397      1.702      0.184129   0.1039599  208.271    0.3157058  0.3157058  0.8       
1124.7     0.218508   -9999      -9999      305.5577   13.066     4.774      1.188      1.121      1.176      1.439      1.61       1.91       0.56       0.85       0.1807779  0.1838324  0.269      0.1777233  0.1694162  6.246014   5.998523   2.363      1.61       0.2066777  0.1422285  207.758    0.3121855  0.3121855  0.8       
1124.8     0.224208   -9999      -9999      305.6578   13.562     4.63       1.392      1.284      1.309      1.51       1.586      1.78       0.56       0.87       0.1805249  0.2005988  0.195      0.1604509  0.1707994  6.178974   4.018508   2.335      1.586      0.2000915  0.1427617  207.421    0.3676667  0.3676667  0.8       
1124.9     0.221008   -9999      -9999      305.6382   13.589     4.428      1.672      1.52       1.502      1.643      1.627      1.75       0.62       0.91       0.1799973  0.2005988  0.185      0.1593958  0.1642994  6.041498   3.931828   2.335      1.627      0.2075976  0.1201478  207.136    0.3709551  0.3709551  0.8       
1125       0.216408   -9999      -9999      306.7052   13.678     4.358      1.718      1.592      1.58       1.715      1.678      1.76       0.73       0.98       0.1264187  0.09560374 0.208      0.1572337  0.1103019  0.6148077  3.659116   2.369      1.678      0          0          206.934    0.3820049  0.3820049  0.8       
1125.1     0.216508   -9999      -9999      305.4135   14.483     4.179      1.5        1.464      1.507      1.689      1.691      1.72       0.74       1          0.08706859 0.05489886 0.156      0.1192383  0.06244943 0.1147836  1.909901   2.394      1.691      0          0          206.752    0.4981591  0.4981591  0.8       
1125.2     0.218708   -9999      -9999      306.0751   14.329     4.373      1.396      1.391      1.447      1.64       1.668      1.75       0.71       1.03       0.09018123 0.05258    0.123      0.1277825  0.06779    0.131079   2.162859   2.407      1.668      0          0          206.843    0.4734901  0.4734901  0.8       
1125.3     0.216208   -9999      -9999      303.5662   14.059     3.975      1.451      1.419      1.456      1.614      1.629      1.81       0.77       1.09       0.103022   0.06870314 0.133      0.1373409  0.08285157 0.2266606  2.689893   2.395      1.629      0          0          207.074    0.4331507  0.4331507  0.8       
1125.4     0.215308   -9999      -9999      303.4518   14.369     4.147      1.421      1.38       1.436      1.586      1.585      1.85       0.76       1.08       0.09496726 0.06735458 0.14       0.1225799  0.07167729 0.1607615  2.094101   2.38       1.585      0          0          207.279    0.4797777  0.4797777  0.8       
1125.5     0.215208   -9999      -9999      301.6344   13.94      3.871      1.339      1.294      1.37       1.529      1.549      1.82       0.71       1          0.1095687  0.07898331 0.167      0.140154   0.08949166 0.2996647  2.961257   2.384      1.549      0          0          207.52     0.4164805  0.4164805  0.8       
1125.6     0.218808   -9999      -9999      302.2004   15.119     3.849      1.317      1.27       1.335      1.487      1.516      1.76       0.69       0.92       0.05666847 0.03453084 0.073      0.07880609 0.03726542 0.03139031 1.142679   2.385      1.516      0          0          207.888    0.6144149  0.6144149  0.8       
1125.7     0.218708   -9999      -9999      302.684    15.308     3.726      1.365      1.329      1.374      1.503      1.501      1.68       0.58       0.83       0.0544825  0.04194344 0.072      0.06702155 0.04897172 0.02859605 0.9809121  2.358      1.501      0          0          208.288    0.6539308  0.6539308  0.8       
