~Version
 VERS              .         2.0                           : CWLS LOG ASCII STANDARD - VERSION 2.0
 WRAP              .         NO                            : ONE LINE PER DEPTH STEP
 DLM               .         SPACE                         : DELIMITING CHARACTER(SPACE TAB OR COMMA)
~Well Information
#_______________________________________________________________________________
#
#PARAMETER_NAME    .UNIT     VALUE                         : DESCRIPTION
#_______________________________________________________________________________
STRT               .M        218.7                         : First reference value
STOP               .M        1168.5                        : Last reference value
STEP               .M        0.1                           : Step increment
NULL               .         -9999                         : Missing value
COMP               .                                       : Company
WELL               .         9671                          : Well name
FLD                .         УЗЕНЬ                         : Field
LOC                .                                       : Location
CNTY               .                                       : County
STAT               .                                       : State
CTRY               .                                       : Country
SRVC               .         AO "UPGF"                     : Service Company
DATE               .         8/2/2018                      : Date
API                .                                       : API number
Block              .         6а                            : 
Cartographic_reference_system .         GCS_WGS_1984                  : ESRI,PE_10_3_1- <?xml version="1.0" encoding="utf-16"?><ILateBoundCoordinateReferenceSystem name="GCS_WGS_1984"><AuthorityCode>EPSG,4326</AuthorityCode></ILateBoundCoordinateReferenceSystem>
Category           .         Нефтяная                      : 
Condition          .         В работе                      : 
Date               .         03.03.2018                    : 
EREF               .m        77.812                        : 
GRP                .                                       : Group name
HZCS               .GCS_WGS_1984 WGS_1984_EASE-Grid_2.0_Global : ESRI,PE_10_3_1- <?xml version="1.0" encoding="utf-16"?><ILateBoundCoordinateReferenceSystem name="WGS_1984_EASE-Grid_2.0_Global"><AuthorityCode>EPSG,6933</AuthorityCode></ILateBoundCoordinateReferenceSystem>
ISS                .                                       : Well surUveys
Interpretator      .         Ким С.В.                      : 
LATI               .dega     0.6667519455                  : GCS_WGS_1984
LONG               .dega     0.4550595161                  : GCS_WGS_1984
Mud                .         калий-хлор                    : 
Mud_density        .         1.34                          : 
Mud_resistivity    .         0.03                          : 
NGDU               .         НГДУ-2                        : 
SPDA               .         08/02/2018                    : 
TIME               .                                       : LOG TIME
Viscosity          .         45                            : 
X                  .m        43907.00                      : 
Y                  .m        85057.87                      : 
YEAR               .         2018                          : 
~Parameter Information Block
#_______________________________________________________________________________
#
#PARAMETER_NAME    .UNIT     VALUE                         : DESCRIPTION
#_______________________________________________________________________________
SET                .         LQC_KAZNIPI_Petrel            : 
TLFamily_CALI      .         Caliper                       : 
TLFamily_COLL      .         Net Reservoir Flag            : 
TLFamily_CSAT      .         Fluid Code                    : 
TLFamily_DEPT      .         Measured Depth                : 
TLFamily_DT        .         Compressional Slowness        : 
TLFamily_GR        .         Russian Gamma Ray             : 
TLFamily_GZ3       .         Gradient 225                  : 
TLFamily_IK1       .         Resistivity 05                : 
TLFamily_IK2       .         Resistivity 07                : 
TLFamily_IK3       .         Resistivity 10                : 
TLFamily_IK4       .         Resistivity 14                : 
TLFamily_IK5       .         Resistivity 20                : 
TLFamily_LLS       .         Lateral Log Resistivity       : 
TLFamily_MINV      .         Micro Gradient Resistivity    : 
TLFamily_MNOR      .         Micro Resistivity             : 
TLFamily_PHIE      .         Effective Porosity            : 
TLFamily_PHIED     .         Effective Porosity            : 
TLFamily_PHIEN     .         Effective Porosity            : 
TLFamily_PHIES     .         Effective Porosity            : 
TLFamily_PHIT      .         Porosity                      : 
TLFamily_PRMB      .         Permeability                  : 
TLFamily_PRMB_DGR  .         Permeability                  : 
TLFamily_RHOB      .         Bulk Density                  : 
TLFamily_RT        .         Formation Resistivity         : 
TLFamily_SOIL_ARCHIE .         Oil Saturation                : 
TLFamily_SOIL_DW   .         Oil Saturation                : 
TLFamily_SP        .         Spontaneous Potential         : 
TLFamily_VSH_FIN   .         Shale Volume                  : 
TLFamily_VSH_GR    .         Shale Volume                  : 
TLFamily_VSH_SP    .         Shale Volume                  : 
~Curve Information
#_______________________________________________________________________________
#
#LOGNAME           .UNIT     LOG_ID                        : DESCRIPTION
#_______________________________________________________________________________
DEPT               .M                                      : Depth curve 
CALI               .M                                      : Кавернометрия 
COLL               .unitless                               : Описание 
CSAT               .unitless                               : Описание 
DT                 .мкс/м                                  : 1 ДельтаТ - Волна по 
GR                 .uR/h                                   : ГК 
GZ3                .Ohmm                                   : A2.0M0.5N 
IK1                .Ohmm                                   : И0.10И0.40 
IK2                .Ohmm                                   : И0.14И0.56 
IK3                .Ohmm                                   : И0.20И0.8 
IK4                .Ohmm                                   : И0.28И1.12 
IK5                .Ohmm                                   : И0.40И1.60 
LLS                .Ohmm                                   : БК, Омм 
MINV               .Ohmm                                   : МГЗ, Омм 
MNOR               .Ohmm                                   : МПЗ, Омм 
PHIE               .v/v                                    : Описание 
PHIED              .v/v                                    :  
PHIEN              .v/v                                    : Porosity by NL 
PHIES              .v/v                                    :  
PHIT               .v/v                                    : Описание 
PRMB               .мД                                     :  
PRMB_DGR           .мД                                     :  
RHOB               .G/CM3                                  : ГГКП 
RT                 .ohmm                                   : Description 
SOIL_ARCHIE        .v/v                                    :  
SOIL_DW            .v/v                                    :  
SP                 .мВ                                     : ПС 
VSH_FIN            .v/v                                    : Описание 
VSH_GR             .v/v                                    : Shale volume 
VSH_SP             .v/v                                    : Shale Volume 
~Ascii
# ...
966.6      0.225008   -9999      -9999      314.1479   8.907      4.756      1.994      1.882      1.917      2.425      2.527      2.72       1.6        1.94       0.05777929 -0.02278911 -9999      0.1383477  -9999      0.03291324 2.197514   2.534      2.527      0          -9999      196.921    0.4704267  0.4704267  0.8       
966.7000000000001 0.225608   -9999      -9999      315.8813   9.104      4.944      2.013      1.912      1.937      2.417      2.488      2.68       1.63       1.99       0.06099    -0.01323878 -9999      0.1352188  -9999      0.03774339 2.021094   2.512      2.488      0          -9999      196.466    0.4867802  0.4867802  0.8       
966.8      0.225508   -9999      -9999      315.2798   9.25       5.011      1.974      1.869      1.889      2.345      2.412      2.57       1.65       1.97       0.06269334 -0.005226514 -9999      0.1306132  -9999      0.04058737 1.89955    2.494      2.412      0          -9999      196.245    0.4992657  0.4992657  0.8       
966.9      0.224608   -9999      -9999      320.5905   9.407      4.934      1.879      1.749      1.784      2.221      2.295      2.26       1.64       1.88       0.06560377 -0.00109485 -9999      0.1323024  -9999      0.04595143 1.776992   2.482      2.295      0          -9999      195.888    0.5130494  0.5130494  0.8       
967        0.223908   -9999      -9999      325.6949   9.755      5.084      1.583      1.606      1.65       2.069      2.118      1.94       1.46       1.55       0.06914037 0.01039504 -9999      0.1278857  -9999      0.0534325  1.532788   2.451      2.118      0          -9999      195.616    0.5449738  0.5449738  0.8       
967.1      0.225808   -9999      -9999      334.6612   9.95       4.87       1.378      1.382      1.503      1.888      1.958      1.72       1.37       1.38       0.08050613 0.02959432 -9999      0.1314179  -9999      0.08676147 1.410932   2.412      1.958      0          -9999      195.359    0.5637231  0.5637231  0.8       
967.2000000000001 0.230708   -9999      -9999      341.6004   10.057     4.842      1.315      1.267      1.393      1.746      1.841      1.59       1.35       1.34       0.0871407  0.03923054 -9999      0.1350509  -9999      0.1151371  1.348234   2.392      1.841      0          -9999      195.148    0.5742839  0.5742839  0.8       
967.3      0.237008   -9999      -9999      348.0287   10.524     4.674      1.284      1.245      1.314      1.658      1.76       1.53       1.36       1.32       0.07517327 0.02430282 -9999      0.1260437  -9999      0.06911134 1.105623   2.399      1.76       0          -9999      195.263    0.6227415  0.6227415  0.8       
967.4      0.234708   -9999      -9999      350.1007   10.695     4.759      1.278      1.242      1.285      1.607      1.72       1.5        1.42       1.33       0.06544128 0.008771664 -9999      0.1221109  -9999      0.04563408 1.028156   2.418      1.72       0          -9999      195.309    0.6414901  0.6414901  0.8       
967.5      0.237708   -9999      -9999      348.408    10.161     4.342      1.299      1.267      1.306      1.597      1.714      1.52       1.49       1.4        0.0756395  0.01296226 -9999      0.1383168  -9999      0.07049935 1.289965   2.432      1.714      0          -9999      195.636    0.5847381  0.5847381  0.8       
967.6      0.239308   -9999      -9999      344.4351   10.357     4.403      1.334      1.299      1.337      1.641      1.727      1.61       1.55       1.46       0.06055101 -0.007087011 -9999      0.128189   -9999      0.0370433  1.186909   2.458      1.727      0          -9999      195.963    0.6049604  0.6049604  0.8       
967.7000000000001 0.233608   -9999      -9999      336.9129   10.716     4.212      1.355      1.314      1.355      1.673      1.747      1.68       1.61       1.51       0.04075501 -0.02707636 -9999      0.1085864  -9999      0.01592354 1.019025   2.477      1.747      0          -9999      196.371    0.6438311  0.6438311  0.8       
967.8      0.223708   -9999      -9999      332.8083   10.26      4.15       1.359      1.311      1.356      1.66       1.762      1.78       1.6        1.54       0.05206062 -0.01562915 -9999      0.1197504  -9999      0.02578974 1.236839   2.476      1.762      0          -9999      196.833    0.5948665  0.5948665  0.8       
967.9      0.225508   -9999      -9999      327.0459   10.079     4.219      1.347      1.297      1.343      1.625      1.757      1.81       1.54       1.54       0.05784386 -0.003770981 -9999      0.1194587  -9999      0.03300401 1.335693   2.463      1.757      0          -9999      197.448    0.5764797  0.5764797  0.8       
968        0.229308   -9999      -9999      328.248    9.604      4.074      1.313      1.266      1.311      1.569      1.675      1.76       1.47       1.5        0.07637166 0.01770819 -9999      0.1350351  -9999      0.07273552 1.634333   2.444      1.675      0          -9999      198.02     0.5308846  0.5308846  0.8       
968.1      0.229308   -9999      -9999      327.7872   9.375      4.121      1.264      1.217      1.27       1.507      1.59       1.67       1.39       1.37       0.08584973 0.03067211 -9999      0.1410274  -9999      0.1089691  1.801313   2.43       1.59       0          -9999      198.544    0.5102095  0.5102095  0.8       
968.2000000000001 0.239408   -9999      -9999      333.2765   9.508      3.887      1.202      1.168      1.23       1.454      1.53       1.5        1.35       1.22       0.09062791 0.03821348 -9999      0.1430423  -9999      0.1336001  1.702361   2.413      1.53       0          -9999      199.102    0.5221173  0.5221173  0.8       
968.3      0.233608   -9999      -9999      335.147    9.757      3.921      1.164      1.14       1.196      1.422      1.497      1.36       1.3        1.11       0.09200694 0.04628125 -9999      0.1377326  -9999      0.1416935  1.531486   2.391      1.497      0          -9999      199.537    0.5451629  0.5451629  0.8       
968.4      0.237508   -9999      -9999      339.7139   10.338     3.805      1.162      1.144      1.188      1.425      1.501      1.33       1.28       1.1        0.08093128 0.03766532 -9999      0.1241972  -9999      0.08834902 1.196528   2.384      1.501      0          -9999      200.237    0.6029699  0.6029699  0.8       
968.5      0.234508   -9999      -9999      339.4676   10.385     3.512      1.191      1.171      1.209      1.465      1.541      1.31       1.3        1.16       0.07529692 0.02818852 -9999      0.1224053  -9999      0.06947679 1.172875   2.398      1.541      0          -9999      200.746    0.6079059  0.6079059  0.8       
968.6      0.226608   -9999      -9999      338.8661   10.723     3.496      1.254      1.241      1.274      1.55       1.623      1.35       1.39       1.27       0.06038658 0.01047486 -9999      0.1102983  -9999      0.03678442 1.016      2.414      1.623      0          -9999      200.857    0.6446134  0.6446134  0.8       
968.7000000000001 0.224408   -9999      -9999      334.993    10.717     3.343      1.387      1.36       1.378      1.668      1.746      1.53       1.54       1.43       0.05651857 0.006431812 -9999      0.1066053  -9999      0.03119027 1.018592   2.421      1.746      0          -9999      200.908    0.6439429  0.6439429  0.8       
968.8      0.225308   -9999      -9999      330.3328   10.326     3.335      1.558      1.495      1.497      1.804      1.862      1.77       1.68       1.59       0.06271257 0.0103982  -9999      0.1150269  -9999      0.04062067 1.202644   2.43       1.862      0          -9999      200.707    0.601716   0.601716   0.8       
968.9      0.225208   -9999      -9999      325.9449   10.402     3.433      1.658      1.568      1.564      1.905      1.949      1.96       1.76       1.69       0.04866435 -0.01053253 -9999      0.1078612  -9999      0.02231207 1.164435   2.462      1.949      0          -9999      200.367    0.6097012  0.6097012  0.8       
969        0.223308   -9999      -9999      322.4327   9.717      3.351      1.676      1.571      1.572      1.941      2.007      2.04       1.8        1.73       0.05544721 -0.01456018 -9999      0.1254546  -9999      0.02979716 1.557732   2.494      2.007      0          -9999      200.155    0.5413933  0.5413933  0.8       
