~Version
 VERS              .         2.0                           : CWLS LOG ASCII STANDARD - VERSION 2.0
 WRAP              .         NO                            : ONE LINE PER DEPTH STEP
 DLM               .         SPACE                         : DELIMITING CHARACTER(SPACE TAB OR COMMA)
~Well Information
#_______________________________________________________________________________
#
#PARAMETER_NAME    .UNIT     VALUE                         : DESCRIPTION
#_______________________________________________________________________________
STRT               .M        218.7                         : First reference value
STOP               .M        1168.5                        : Last reference value
STEP               .M        0.1                           : Step increment
NULL               .         -9999                         : Missing value
COMP               .                                       : Company
WELL               .         9671                          : Well name
FLD                .         УЗЕНЬ                         : Field
LOC                .                                       : Location
CNTY               .                                       : County
STAT               .                                       : State
CTRY               .                                       : Country
SRVC               .         AO "UPGF"                     : Service Company
DATE               .         8/2/2018                      : Date
API                .                                       : API number
Block              .         6а                            : 
Cartographic_reference_system .         GCS_WGS_1984                  : ESRI,PE_10_3_1- <?xml version="1.0" encoding="utf-16"?><ILateBoundCoordinateReferenceSystem name="GCS_WGS_1984"><AuthorityCode>EPSG,4326</AuthorityCode></ILateBoundCoordinateReferenceSystem>
Category           .         Нефтяная                      : 
Condition          .         В работе                      : 
Date               .         03.03.2018                    : 
EREF               .m        77.812                        : 
GRP                .                                       : Group name
HZCS               .GCS_WGS_1984 WGS_1984_EASE-Grid_2.0_Global : ESRI,PE_10_3_1- <?xml version="1.0" encoding="utf-16"?><ILateBoundCoordinateReferenceSystem name="WGS_1984_EASE-Grid_2.0_Global"><AuthorityCode>EPSG,6933</AuthorityCode></ILateBoundCoordinateReferenceSystem>
ISS                .                                       : Well surUveys
Interpretator      .         Ким С.В.                      : 
LATI               .dega     0.6667519455                  : GCS_WGS_1984
LONG               .dega     0.4550595161                  : GCS_WGS_1984
Mud                .         калий-хлор                    : 
Mud_density        .         1.34                          : 
Mud_resistivity    .         0.03                          : 
NGDU               .         НГДУ-2                        : 
SPDA               .         08/02/2018                    : 
TIME               .                                       : LOG TIME
Viscosity          .         45                            : 
X                  .m        43907.00                      : 
Y                  .m        85057.87                      : 
YEAR               .         2018                          : 
~Parameter Information Block
#_______________________________________________________________________________
#
#PARAMETER_NAME    .UNIT     VALUE                         : DESCRIPTION
#_______________________________________________________________________________
SET                .         LQC_KAZNIPI_Petrel            : 
TLFamily_CALI      .         Caliper                       : 
TLFamily_COLL      .         Net Reservoir Flag            : 
TLFamily_CSAT      .         Fluid Code                    : 
TLFamily_DEPT      .         Measured Depth                : 
TLFamily_DT        .         Compressional Slowness        : 
TLFamily_GR        .         Russian Gamma Ray             : 
TLFamily_GZ3       .         Gradient 225                  : 
TLFamily_IK1       .         Resistivity 05                : 
TLFamily_IK2       .         Resistivity 07                : 
TLFamily_IK3       .         Resistivity 10                : 
TLFamily_IK4       .         Resistivity 14                : 
TLFamily_IK5       .         Resistivity 20                : 
TLFamily_LLS       .         Lateral Log Resistivity       : 
TLFamily_MINV      .         Micro Gradient Resistivity    : 
TLFamily_MNOR      .         Micro Resistivity             : 
TLFamily_PHIE      .         Effective Porosity            : 
TLFamily_PHIED     .         Effective Porosity            : 
TLFamily_PHIEN     .         Effective Porosity            : 
TLFamily_PHIES     .         Effective Porosity            : 
TLFamily_PHIT      .         Porosity                      : 
TLFamily_PRMB      .         Permeability                  : 
TLFamily_PRMB_DGR  .         Permeability                  : 
TLFamily_RHOB      .         Bulk Density                  : 
TLFamily_RT        .         Formation Resistivity         : 
TLFamily_SOIL_ARCHIE .         Oil Saturation                : 
TLFamily_SOIL_DW   .         Oil Saturation                : 
TLFamily_SP        .         Spontaneous Potential         : 
TLFamily_VSH_FIN   .         Shale Volume                  : 
TLFamily_VSH_GR    .         Shale Volume                  : 
TLFamily_VSH_SP    .         Shale Volume                  : 
~Curve Information
#_______________________________________________________________________________
#
#LOGNAME           .UNIT     LOG_ID                        : DESCRIPTION
#_______________________________________________________________________________
DEPT               .M                                      : Depth curve 
CALI               .M                                      : Кавернометрия 
COLL               .unitless                               : Описание 
CSAT               .unitless                               : Описание 
DT                 .мкс/м                                  : 1 ДельтаТ - Волна по 
GR                 .uR/h                                   : ГК 
GZ3                .Ohmm                                   : A2.0M0.5N 
IK1                .Ohmm                                   : И0.10И0.40 
IK2                .Ohmm                                   : И0.14И0.56 
IK3                .Ohmm                                   : И0.20И0.8 
IK4                .Ohmm                                   : И0.28И1.12 
IK5                .Ohmm                                   : И0.40И1.60 
LLS                .Ohmm                                   : БК, Омм 
MINV               .Ohmm                                   : МГЗ, Омм 
MNOR               .Ohmm                                   : МПЗ, Омм 
PHIE               .v/v                                    : Описание 
PHIED              .v/v                                    :  
PHIEN              .v/v                                    : Porosity by NL 
PHIES              .v/v                                    :  
PHIT               .v/v                                    : Описание 
PRMB               .мД                                     :  
PRMB_DGR           .мД                                     :  
RHOB               .G/CM3                                  : ГГКП 
RT                 .ohmm                                   : Description 
SOIL_ARCHIE        .v/v                                    :  
SOIL_DW            .v/v                                    :  
SP                 .мВ                                     : ПС 
VSH_FIN            .v/v                                    : Описание 
VSH_GR             .v/v                                    : Shale volume 
VSH_SP             .v/v                                    : Shale Volume 
~Ascii
# ...
946.6      0.223008   -9999      -9999      306.434    7.959      4.999      1.821      1.702      1.777      2.185      2.335      2.03       1.58       1.64       0.1109031  0.07026067 -9999      0.1515456  -9999      0.3172143  3.287233   2.405      2.335      0          -9999      199.517    0.3990938  0.3990938  0.8       
946.7000000000001 0.223308   -9999      -9999      305.3623   7.865      4.87       1.806      1.687      1.764      2.185      2.363      2.06       1.55       1.66       0.1170648  0.08187037 -9999      0.1522592  -9999      0.4125546  3.421156   2.388      2.363      0.03257339 -9999      199.147    0.3926391  0.3926391  0.8       
946.8      0.223108   -9999      -9999      306.6546   8.377      4.696      1.877      1.752      1.824      2.262      2.427      2.18       1.66       1.74       0.1086965  0.07498849 -9999      0.1424044  -9999      0.2887222  2.752408   2.386      2.427      0          -9999      198.759    0.4291062  0.4291062  0.8       
946.9      0.223008   -9999      -9999      303.3412   8.458      4.785      1.967      1.841      1.923      2.389      2.556      2.5        1.82       1.9        0.09934588 0.06226598 -9999      0.1364258  -9999      0.1937692  2.659309   2.405      2.556      0          -9999      198.176    0.435178   0.435178   0.8       
947        0.222908   -9999      -9999      300.5661   7.876      4.715      2.194      1.97       2.058      2.535      2.684      2.88       2.06       2.18       0.09321636 0.04038686 -9999      0.1460459  -9999      0.1491939  3.405207   2.457      2.684      0          -9999      198.073    0.393389   0.393389   0.8       
947.1      0.222908   -9999      -9999      297.867    7.625      5.093      2.346      2.105      2.164      2.666      2.786      2.96       2.13       2.24       0.1203331  0.09281431 -9999      0.1478518  -9999      0.4742618  3.788357   2.515      2.786      0.1257371  -9999      197.425    0.3766286  0.3766286  0.8       
947.2000000000001 0.222608   -9999      -9999      295.0211   7.755      4.911      2.38       2.169      2.203      2.733      2.867      3.04       2.18       2.27       0.06188546 -0.01768303 -9999      0.141454   -9999      0.03921271 3.584817   2.557      2.867      0          -9999      197.144    0.3852182  0.3852182  0.8       
947.3      0.222808   -9999      -9999      296.4488   7.801      5.112      2.394      2.161      2.205      2.746      2.899      3.18       2.28       2.21       0.05810132 -0.0261512 -9999      0.1423538  -9999      0.03336841 3.515445   2.57       2.899      0          -9999      196.893    0.3883043  0.3883043  0.8       
947.4      0.223008   -9999      -9999      295.6226   7.837      5.106      2.29       2.085      2.157      2.728      2.88       2.89       2.01       2.03       0.06439623 -0.01172015 -9999      0.1405126  -9999      0.0436448  3.462091   2.545      2.88       0          -9999      196.436    0.3907367  0.3907367  0.8       
947.5      0.222908   -9999      -9999      299.087    7.781      5.091      2.188      2.022      2.108      2.691      2.837      2.69       1.94       2.02       0.08351634 0.02085323 -9999      0.1461794  -9999      0.09864685 3.545441   2.492      2.837      0          -9999      196.468    0.3869595  0.3869595  0.8       
947.6      0.222708   -9999      -9999      297.2531   8.052      5.228      2.142      2.012      2.095      2.635      2.787      2.6        2.01       2.03       0.08693437 0.03588849 -9999      0.1379802  -9999      0.1141283  3.159895   2.46       2.787      0          -9999      196.439    0.4055843  0.4055843  0.8       
947.7000000000001 0.223108   -9999      -9999      298.6655   7.963      5.215      2.148      2.031      2.094      2.601      2.732      2.77       2.04       2.11       0.08651268 0.03127711 -9999      0.1417482  -9999      0.1120941  3.281653   2.47       2.732      0          -9999      196.702    0.3993708  0.3993708  0.8       
947.8      0.223008   -9999      -9999      294.7904   7.582      5.396      2.155      1.999      2.057      2.556      2.689      3.01       2          2.12       0.1214623  0.09820357 -9999      0.144721   -9999      0.4976621  3.858196   2.506      2.689      0.1182792  -9999      196.848    0.3738298  0.3738298  0.8       
947.9      0.222808   -9999      -9999      295.3516   7.269      5.282      1.992      1.854      1.932      2.462      2.644      2.74       1.66       1.77       0.1228322  0.09401197 -9999      0.1516524  -9999      0.5276036  4.406871   2.513      2.644      0.1199074  -9999      196.949    0.3540742  0.3540742  0.8       
948        0.223208   -9999      -9999      293.7443   7.02       5.295      1.819      1.725      1.835      2.37       2.517      2.32       1.43       1.59       0.1286099  0.1029941  -9999      0.1542258  -9999      0.6750344  4.898564   2.498      2.517      0.1346852  -9999      197.161    0.3391064  0.3391064  0.8       
948.1      0.223208   -9999      -9999      296.5772   7.525      5.313      1.808      1.727      1.835      2.321      2.413      2.24       1.39       1.61       0.1232079  0.09820357 -9999      0.1482122  -9999      0.5361264  3.952759   2.506      2.413      0.08376939 -9999      197.529    0.3701518  0.3701518  0.8       
948.2000000000001 0.223208   -9999      -9999      299.3378   8.371      5.216      1.875      1.775      1.849      2.277      2.356      2.44       1.43       1.68       0.05934627 -0.01473303 -9999      0.1334256  -9999      0.03518802 2.759431   2.536      2.356      0          -9999      198.399    0.4286599  0.4286599  0.8       
948.3      0.223008   -9999      -9999      303.6591   8.724      5.143      1.854      1.734      1.791      2.194      2.303      2.51       1.44       1.62       0.04943449 -0.03150857 -9999      0.1303775  -9999      0.0230571  2.375165   2.554      2.303      0          -9999      198.798    0.4557281  0.4557281  0.8       
948.4      0.223608   -9999      -9999      307.7299   8.605      5.146      1.712      1.622      1.688      2.089      2.246      2.25       1.43       1.52       0.06160299 -0.01507447 -9999      0.1382805  -9999      0.03874314 2.498322   2.53       2.246      0          -9999      199.36     0.4464173  0.4464173  0.8       
948.5      0.223708   -9999      -9999      310.2896   8.552      5.158      1.612      1.54       1.611      2.011      2.204      1.96       1.5        1.53       0.07590602 0.009183972 -9999      0.1426281  -9999      0.07130527 2.55521    2.491      2.204      0          -9999      199.945    0.442332   0.442332   0.8       
948.6      0.223508   -9999      -9999      311.7433   8.714      4.969      1.606      1.539      1.604      2.01       2.203      1.87       1.64       1.6        0.0841714  0.02794786 -9999      0.1403949  -9999      0.1014417  2.385276   2.455      2.203      0          -9999      200.283    0.4549383  0.4549383  0.8       
948.7000000000001 0.224308   -9999      -9999      310.9529   9.237      4.975      1.666      1.6        1.67       2.078      2.249      1.88       1.7        1.69       0.08112834 0.03634001 -9999      0.1259167  -9999      0.08909465 1.910069   2.425      2.249      0          -9999      200.752    0.4981412  0.4981412  0.8       
948.8      0.223808   -9999      -9999      308.8161   9.252      4.745      1.762      1.709      1.784      2.197      2.326      2.04       1.76       1.8        0.08310109 0.04323801 -9999      0.1229642  -9999      0.09691517 1.897937   2.413      2.326      0          -9999      200.941    0.4994389  0.4994389  0.8       
948.9      0.223708   -9999      -9999      306.5384   9.578      4.613      1.881      1.822      1.897      2.313      2.419      2.2        1.83       1.9        0.06916051 0.02721958 -9999      0.1111014  -9999      0.05347842 1.652484   2.429      2.419      0          -9999      201.04     0.5284957  0.5284957  0.8       
949        0.223508   -9999      -9999      304.2991   9.547      4.650001   1.982      1.899      1.974      2.384      2.481      2.42       1.88       1.98       0.05746778 0.005691749 -9999      0.1092438  -9999      0.03247886 1.67439    2.466      2.481      0          -9999      201.078    0.5256613  0.5256613  0.8       
