~Version
 VERS              .         2.0                           : CWLS LOG ASCII STANDARD - VERSION 2.0
 WRAP              .         NO                            : ONE LINE PER DEPTH STEP
 DLM               .         SPACE                         : DELIMITING CHARACTER(SPACE TAB OR COMMA)
~Well Information
#_______________________________________________________________________________
#
#PARAMETER_NAME    .UNIT     VALUE                         : DESCRIPTION
#_______________________________________________________________________________
STRT               .M        218.7                         : First reference value
STOP               .M        1168.5                        : Last reference value
STEP               .M        0.1                           : Step increment
NULL               .         -9999                         : Missing value
COMP               .                                       : Company
WELL               .         9671                          : Well name
FLD                .         УЗЕНЬ                         : Field
LOC                .                                       : Location
CNTY               .                                       : County
STAT               .                                       : State
CTRY               .                                       : Country
SRVC               .         AO "UPGF"                     : Service Company
DATE               .         8/2/2018                      : Date
API                .                                       : API number
Block              .         6а                            : 
Cartographic_reference_system .         GCS_WGS_1984                  : ESRI,PE_10_3_1- <?xml version="1.0" encoding="utf-16"?><ILateBoundCoordinateReferenceSystem name="GCS_WGS_1984"><AuthorityCode>EPSG,4326</AuthorityCode></ILateBoundCoordinateReferenceSystem>
Category           .         Нефтяная                      : 
Condition          .         В работе                      : 
Date               .         03.03.2018                    : 
EREF               .m        77.812                        : 
GRP                .                                       : Group name
HZCS               .GCS_WGS_1984 WGS_1984_EASE-Grid_2.0_Global : ESRI,PE_10_3_1- <?xml version="1.0" encoding="utf-16"?><ILateBoundCoordinateReferenceSystem name="WGS_1984_EASE-Grid_2.0_Global"><AuthorityCode>EPSG,6933</AuthorityCode></ILateBoundCoordinateReferenceSystem>
ISS                .                                       : Well surUveys
Interpretator      .         Ким С.В.                      : 
LATI               .dega     0.6667519455                  : GCS_WGS_1984
LONG               .dega     0.4550595161                  : GCS_WGS_1984
Mud                .         калий-хлор                    : 
Mud_density        .         1.34                          : 
Mud_resistivity    .         0.03                          : 
NGDU               .         НГДУ-2                        : 
SPDA               .         08/02/2018                    : 
TIME               .                                       : LOG TIME
Viscosity          .         45                            : 
X                  .m        43907.00                      : 
Y                  .m        85057.87                      : 
YEAR               .         2018                          : 
~Parameter Information Block
#_______________________________________________________________________________
#
#PARAMETER_NAME    .UNIT     VALUE                         : DESCRIPTION
#_______________________________________________________________________________
SET                .         LQC_KAZNIPI_Petrel            : 
TLFamily_CALI      .         Caliper                       : 
TLFamily_COLL      .         Net Reservoir Flag            : 
TLFamily_CSAT      .         Fluid Code                    : 
TLFamily_DEPT      .         Measured Depth                : 
TLFamily_DT        .         Compressional Slowness        : 
TLFamily_GR        .         Russian Gamma Ray             : 
TLFamily_GZ3       .         Gradient 225                  : 
TLFamily_IK1       .         Resistivity 05                : 
TLFamily_IK2       .         Resistivity 07                : 
TLFamily_IK3       .         Resistivity 10                : 
TLFamily_IK4       .         Resistivity 14                : 
TLFamily_IK5       .         Resistivity 20                : 
TLFamily_LLS       .         Lateral Log Resistivity       : 
TLFamily_MINV      .         Micro Gradient Resistivity    : 
TLFamily_MNOR      .         Micro Resistivity             : 
TLFamily_PHIE      .         Effective Porosity            : 
TLFamily_PHIED     .         Effective Porosity            : 
TLFamily_PHIEN     .         Effective Porosity            : 
TLFamily_PHIES     .         Effective Porosity            : 
TLFamily_PHIT      .         Porosity                      : 
TLFamily_PRMB      .         Permeability                  : 
TLFamily_PRMB_DGR  .         Permeability                  : 
TLFamily_RHOB      .         Bulk Density                  : 
TLFamily_RT        .         Formation Resistivity         : 
TLFamily_SOIL_ARCHIE .         Oil Saturation                : 
TLFamily_SOIL_DW   .         Oil Saturation                : 
TLFamily_SP        .         Spontaneous Potential         : 
TLFamily_VSH_FIN   .         Shale Volume                  : 
TLFamily_VSH_GR    .         Shale Volume                  : 
TLFamily_VSH_SP    .         Shale Volume                  : 
~Curve Information
#_______________________________________________________________________________
#
#LOGNAME           .UNIT     LOG_ID                        : DESCRIPTION
#_______________________________________________________________________________
DEPT               .M                                      : Depth curve 
CALI               .M                                      : Кавернометрия 
COLL               .unitless                               : Описание 
CSAT               .unitless                               : Описание 
DT                 .мкс/м                                  : 1 ДельтаТ - Волна по 
GR                 .uR/h                                   : ГК 
GZ3                .Ohmm                                   : A2.0M0.5N 
IK1                .Ohmm                                   : И0.10И0.40 
IK2                .Ohmm                                   : И0.14И0.56 
IK3                .Ohmm                                   : И0.20И0.8 
IK4                .Ohmm                                   : И0.28И1.12 
IK5                .Ohmm                                   : И0.40И1.60 
LLS                .Ohmm                                   : БК, Омм 
MINV               .Ohmm                                   : МГЗ, Омм 
MNOR               .Ohmm                                   : МПЗ, Омм 
PHIE               .v/v                                    : Описание 
PHIED              .v/v                                    :  
PHIEN              .v/v                                    : Porosity by NL 
PHIES              .v/v                                    :  
PHIT               .v/v                                    : Описание 
PRMB               .мД                                     :  
PRMB_DGR           .мД                                     :  
RHOB               .G/CM3                                  : ГГКП 
RT                 .ohmm                                   : Description 
SOIL_ARCHIE        .v/v                                    :  
SOIL_DW            .v/v                                    :  
SP                 .мВ                                     : ПС 
VSH_FIN            .v/v                                    : Описание 
VSH_GR             .v/v                                    : Shale volume 
VSH_SP             .v/v                                    : Shale Volume 
~Ascii
# ...
1026.5     0.222008   -9999      -9999      274.692    5.942      6.433      2.711      2.549      2.578      3.451000000000001 3.771999999999999 2.56       2.49       2.4        0.1026135  0.05988028 -9999      0.1453467  -9999      0.2227455  7.74376    2.57       3.772      0.128747   -9999      201.854    0.2812713  0.2812713  0.8       
1026.6     0.223208   -9999      -9999      285.1914   6.47       6.261001   2.578      2.578      2.668      3.616      3.955000000000001 2.85       2.37       2.39       0.09826604 0.0443114  -9999      0.1522207  -9999      0.1850476  6.187852   2.596      3.955      0.1151613  -9999      202.023    0.3082493  0.3082493  0.8       
1026.7     0.222208   -9999      -9999      287.3027   6.545      6.399      2.966      2.977      3.05       4.017      4.276      3.9        2.64       2.73       0.09281973 0.03173647 -9999      0.153903   -9999      0.1466914  5.993808   2.617      4.276      0.1035465  -9999      202.178    0.3122857  0.3122857  0.8       
1026.8     0.222708   -9999      -9999      286.907    6.279      6.89       3.643      3.657      3.771      4.612      4.674000000000001 6.17       3.05       3.31       0.08966284 0.02155685 -9999      0.1577688  -9999      0.1282128  6.710857   2.634      4.674      0.1139081  -9999      202.594    0.2982038  0.2982038  0.8       
1026.9     0.222108   -9999      -9999      278.1501   5.74       7.363      4.325000000000001 4.456      4.435000000000001 5.131      4.989000000000001 9.56       3.69       4.03       0.08037327 0.007185633 -9999      0.1535609  -9999      0.08627124 8.437609   2.658      4.989      0.05472548 -9999      203.081    0.2715863  0.2715863  0.8       
1027       0.221808   -9999      -9999      272.8312   5.238      7.967      4.23       4.721      4.570000000000001 5.248999999999999 5.023000000000001 11.25      3.93       4.33       0.076322   0          -9999      0.152644   -9999      0.07258163 10.44323   2.676      5.023      0.01431757 -9999      203.478    0.2489373  0.2489373  0.8       
1027.1     0.221808   -9999      -9999      261.6053   4.928      8.498999   3.533      3.715      4.128      4.855      4.735      9.79       3.54       3.8        0.06936844 0          -9999      0.1387369  -9999      0.05395478 11.91317   2.719      4.735      0          -9999      203.925    0.2359046  0.2359046  0.8       
1027.2     0.221908   -9999      -9999      262.6696   5.343      9.048      2.807      2.828      3.539000000000001 4.218      4.16       7.35       3.21       3.29       0.06749401 0          -9999      0.134988   -9999      0.04980935 9.987638   2.739      4.16       0          -9999      204.297    0.2535129  0.2535129  0.8       
1027.3     0.221908   -9999      -9999      258.908    5.503      9.327      2.162      2.221      2.434      3.484      3.486      5.05       2.91       2.61       0.06321173 0          -9999      0.1264235  -9999      0.0414947  9.331342   2.702      3.486      0          -9999      204.498    0.2606475  0.2606475  0.8       
1027.4     0.222508   -9999      -9999      269.1566   5.755      9.323      1.641      1.709      1.77       2.798      2.923      2.93       2.12       1.71       0.08237305 0.02514969 -9999      0.1395964  -9999      0.09395214 8.384011   2.628      2.923      0          -9999      204.699    0.2722939  0.2722939  0.8       
1027.5     0.224308   -9999      -9999      275.0746   6.814      9.407      1.401      1.434      1.517      2.303      2.426      2.03       1.69       1.35       0.1010919  0.07065865 -9999      0.1315252  -9999      0.2087495  5.34656    2.552      2.426      0          -9999      204.972    0.3272029  0.3272029  0.8       
1027.6     0.228108   -9999      -9999      287.6898   8.283      9          1.405      1.401      1.445      1.929      2.118      1.7        1.75       1.33       0.05544268 -0.009102697 -9999      0.1199881  -9999      0.0297914  2.864541   2.529      2.118      0          -9999      205.284    0.4221661  0.4221661  0.8       
1027.7     0.231508   -9999      -9999      295.9061   9.745      8.513      1.472      1.462      1.467      1.832      1.959      1.64       1.81       1.35       0.03255126 -0.02771913 -9999      0.09282164 -9999      0.01122241 1.539314   2.515      1.959      0          -9999      205.285    0.5440293  0.5440293  0.8       
1027.8     0.232608   -9999      -9999      305.2167   10.877     7.980999   1.514      1.497      1.494      1.873      1.898      1.64       1.81       1.38       0.01       -0.04788281 -9999      0.06760739 -9999      0.004289259 0.9516594  2.505      1.898      0          -9999      205.086    0.6620653  0.6620653  0.8       
1027.9     0.227008   -9999      -9999      311.0861   11.73      7.46       1.533      1.506      1.51       1.902      1.913      1.62       1.8        1.39       0.01       -0.06289163 -9999      0.04157648 -9999      0.004289259 0.6623834  2.491      1.913      0          -9999      204.81     0.7676462  0.7676462  0.8       
1028       0.223108   -9999      -9999      317.2356   11.359     7.232      1.573      1.542      1.546      1.948      2          1.6        1.83       1.45       0.01049796 -0.0427102 -9999      0.06370611 -9999      0.004381327 0.7754543  2.475      2          0          -9999      204.388    0.7198004  0.7198004  0.8       
1028.1     0.226908   -9999      -9999      322.6412   10.813     6.915      1.664      1.625      1.609      2.01       2.084      1.72       1.92       1.54       0.03810672 -0.01392794 -9999      0.09014137 -9999      0.01422286 0.9778881  2.451      2.084      0          -9999      203.924    0.6547559  0.6547559  0.8       
1028.2     0.224408   -9999      -9999      326.3526   10.817     6.564      1.762      1.699      1.667      2.07       2.139      1.88       2.01       1.61       0.04598926 -0.002052608 -9999      0.09403113 -9999      0.01990631 0.9762276  2.431      2.139      0          -9999      203.512    0.6552104  0.6552104  0.8       
1028.3     0.223308   -9999      -9999      329.943    11.232     6.385001   1.813      1.743      1.692      2.093      2.179      2.02       2.07       1.63       0.1110691  0.04394611 -9999      0.1781921  -9999      0.3194679  3.290212   2.449      2.179      0          -9999      203.083    0.3989463  0.3989463  0.8       
1028.4     0.223408   -9999      -9999      330.4583   11.866     6.253      1.852      1.782      1.706      2.082      2.199      2.11       2.13       1.64       0.09306739 0.02039395 -9999      0.1657408  -9999      0.1482491  2.582978   2.473      2.199      0          -9999      202.741    0.4403839  0.4403839  0.8       
1028.5     0.223808   -9999      -9999      328.1703   11.331     6.008      1.869      1.803      1.727      2.066      2.2        2.1        2.13       1.57       0.09200574 0.00963743 -9999      0.174374   -9999      0.1416862  3.168195   2.504      2.2        0          -9999      202.216    0.4051501  0.4051501  0.8       
1028.6     0.224408   -9999      -9999      326.4914   10.916     6.166      1.864      1.804      1.742      2.06       2.19       2.08       2.11       1.54       0.1333828  0.08622753 -9999      0.180538   -9999      0.8274291  3.712014   2.526      2.19       0.1051446  -9999      201.939    0.3797725  0.3797725  0.8       
1028.7     0.226908   -9999      -9999      319.8164   10.95      5.925001   1.879      1.809      1.747      2.058      2.172      2.1        2.16       1.6        0.0832235  -0.006145205 -9999      0.1725922  -9999      0.09742247 3.664151   2.539      2.172      0          -9999      201.805    0.3817904  0.3817904  0.8       
1028.8     0.223908   -9999      -9999      318.2641   10.774     5.785      1.84       1.75       1.723      2.045      2.145      2.1        2.05       1.6        0.1250673  0.07604791 -9999      0.1740867  -9999      0.5803738  3.918773   2.543      2.145      0.04427593 -9999      201.722    0.3714592  0.3714592  0.8       
