~Version
 VERS              .         2.0                           : CWLS LOG ASCII STANDARD - VERSION 2.0
 WRAP              .         NO                            : ONE LINE PER DEPTH STEP
 DLM               .         SPACE                         : DELIMITING CHARACTER(SPACE TAB OR COMMA)
~Well Information
#_______________________________________________________________________________
#
#PARAMETER_NAME    .UNIT     VALUE                         : DESCRIPTION
#_______________________________________________________________________________
STRT               .M        218.7                         : First reference value
STOP               .M        1168.5                        : Last reference value
STEP               .M        0.1                           : Step increment
NULL               .         -9999                         : Missing value
COMP               .                                       : Company
WELL               .         9671                          : Well name
FLD                .         УЗЕНЬ                         : Field
LOC                .                                       : Location
CNTY               .                                       : County
STAT               .                                       : State
CTRY               .                                       : Country
SRVC               .         AO "UPGF"                     : Service Company
DATE               .         8/2/2018                      : Date
API                .                                       : API number
Block              .         6а                            : 
Cartographic_reference_system .         GCS_WGS_1984                  : ESRI,PE_10_3_1- <?xml version="1.0" encoding="utf-16"?><ILateBoundCoordinateReferenceSystem name="GCS_WGS_1984"><AuthorityCode>EPSG,4326</AuthorityCode></ILateBoundCoordinateReferenceSystem>
Category           .         Нефтяная                      : 
Condition          .         В работе                      : 
Date               .         03.03.2018                    : 
EREF               .m        77.812                        : 
GRP                .                                       : Group name
HZCS               .GCS_WGS_1984 WGS_1984_EASE-Grid_2.0_Global : ESRI,PE_10_3_1- <?xml version="1.0" encoding="utf-16"?><ILateBoundCoordinateReferenceSystem name="WGS_1984_EASE-Grid_2.0_Global"><AuthorityCode>EPSG,6933</AuthorityCode></ILateBoundCoordinateReferenceSystem>
ISS                .                                       : Well surUveys
Interpretator      .         Ким С.В.                      : 
LATI               .dega     0.6667519455                  : GCS_WGS_1984
LONG               .dega     0.4550595161                  : GCS_WGS_1984
Mud                .         калий-хлор                    : 
Mud_density        .         1.34                          : 
Mud_resistivity    .         0.03                          : 
NGDU               .         НГДУ-2                        : 
SPDA               .         08/02/2018                    : 
TIME               .                                       : LOG TIME
Viscosity          .         45                            : 
X                  .m        43907.00                      : 
Y                  .m        85057.87                      : 
YEAR               .         2018                          : 
~Parameter Information Block
#_______________________________________________________________________________
#
#PARAMETER_NAME    .UNIT     VALUE                         : DESCRIPTION
#_______________________________________________________________________________
SET                .         LQC_KAZNIPI_Petrel            : 
TLFamily_CALI      .         Caliper                       : 
TLFamily_COLL      .         Net Reservoir Flag            : 
TLFamily_CSAT      .         Fluid Code                    : 
TLFamily_DEPT      .         Measured Depth                : 
TLFamily_DT        .         Compressional Slowness        : 
TLFamily_GR        .         Russian Gamma Ray             : 
TLFamily_GZ3       .         Gradient 225                  : 
TLFamily_IK1       .         Resistivity 05                : 
TLFamily_IK2       .         Resistivity 07                : 
TLFamily_IK3       .         Resistivity 10                : 
TLFamily_IK4       .         Resistivity 14                : 
TLFamily_IK5       .         Resistivity 20                : 
TLFamily_LLS       .         Lateral Log Resistivity       : 
TLFamily_MINV      .         Micro Gradient Resistivity    : 
TLFamily_MNOR      .         Micro Resistivity             : 
TLFamily_PHIE      .         Effective Porosity            : 
TLFamily_PHIED     .         Effective Porosity            : 
TLFamily_PHIEN     .         Effective Porosity            : 
TLFamily_PHIES     .         Effective Porosity            : 
TLFamily_PHIT      .         Porosity                      : 
TLFamily_PRMB      .         Permeability                  : 
TLFamily_PRMB_DGR  .         Permeability                  : 
TLFamily_RHOB      .         Bulk Density                  : 
TLFamily_RT        .         Formation Resistivity         : 
TLFamily_SOIL_ARCHIE .         Oil Saturation                : 
TLFamily_SOIL_DW   .         Oil Saturation                : 
TLFamily_SP        .         Spontaneous Potential         : 
TLFamily_VSH_FIN   .         Shale Volume                  : 
TLFamily_VSH_GR    .         Shale Volume                  : 
TLFamily_VSH_SP    .         Shale Volume                  : 
~Curve Information
#_______________________________________________________________________________
#
#LOGNAME           .UNIT     LOG_ID                        : DESCRIPTION
#_______________________________________________________________________________
DEPT               .M                                      : Depth curve 
CALI               .M                                      : Кавернометрия 
COLL               .unitless                               : Описание 
CSAT               .unitless                               : Описание 
DT                 .мкс/м                                  : 1 ДельтаТ - Волна по 
GR                 .uR/h                                   : ГК 
GZ3                .Ohmm                                   : A2.0M0.5N 
IK1                .Ohmm                                   : И0.10И0.40 
IK2                .Ohmm                                   : И0.14И0.56 
IK3                .Ohmm                                   : И0.20И0.8 
IK4                .Ohmm                                   : И0.28И1.12 
IK5                .Ohmm                                   : И0.40И1.60 
LLS                .Ohmm                                   : БК, Омм 
MINV               .Ohmm                                   : МГЗ, Омм 
MNOR               .Ohmm                                   : МПЗ, Омм 
PHIE               .v/v                                    : Описание 
PHIED              .v/v                                    :  
PHIEN              .v/v                                    : Porosity by NL 
PHIES              .v/v                                    :  
PHIT               .v/v                                    : Описание 
PRMB               .мД                                     :  
PRMB_DGR           .мД                                     :  
RHOB               .G/CM3                                  : ГГКП 
RT                 .ohmm                                   : Description 
SOIL_ARCHIE        .v/v                                    :  
SOIL_DW            .v/v                                    :  
SP                 .мВ                                     : ПС 
VSH_FIN            .v/v                                    : Описание 
VSH_GR             .v/v                                    : Shale volume 
VSH_SP             .v/v                                    : Shale Volume 
~Ascii
# ...
890.2000000000001 0.224008   -9999      -9999      306.9732   10.202     10.564     4.994      5.046      5.286999999999999 6.805      6.102      6.92       2.52       2.87       0.01       -0.1658683 -9999      0.0265055  -9999      0.004289259 0.3765472  2.651      6.102      0          -9999      205.603    0.8        0.8        0.8       
890.3      0.223408   -9999      -9999      311.817    9.778      10.518     4.726      4.806      4.923      6.299      5.74       7.83       2.67       2.92       0.01       -0.1797308 -9999      0.04233567 -9999      0.004289259 0.6616912  2.686      5.74       0          -9999      205.097    0.767974   0.767974   0.8       
890.4      0.222908   -9999      -9999      309.3991   9.027      10.682     4.084      4.097      4.271      5.531      5.224      7.77       2.56       2.74       0.01       -0.1239543 -9999      0.1200937  -9999      0.004289259 1.796038   2.688      5.224      0          -9999      204.423    0.5108208  0.5108208  0.8       
890.5      0.223608   -9999      -9999      306.4789   8.878      10.908     3.389      3.431000000000001 3.640000000000001 4.717000000000001 4.642      7.02       2.5        2.58       0.01       -0.1109678 -9999      0.1290166  -9999      0.004289259 2.18955    2.681      4.642      0          -9999      203.668    0.4711247  0.4711247  0.8       
890.6      0.223008   -9999      -9999      302.6266   9.531      11.156     2.854      2.83       3.041      3.878      4.089      5.73       2.3        2.29       0.01       -0.1404129 -9999      0.06141212 -9999      0.004289259 0.9189333  2.656      4.089      0          -9999      203.078    0.6715935  0.6715935  0.8       
890.7000000000001 0.223808   -9999      -9999      295.1332   10.222     11.547     2.425      2.378      2.588      3.28       3.546      4.39       2          2.02       0.01       -0.1526946 -9999      0.01155485 -9999      0.004289259 0.3666657  2.629      3.546      0          -9999      202.735    0.8        0.8        0.8       
890.8      0.224208   -9999      -9999      296.3504   10.526     11.663     2.076      2.065      2.241      2.882      3.167      3.67       1.8        1.8        0.01       -0.1413173 -9999      0.01314692 -9999      0.004289259 0.2447525  2.61       3.167      0          -9999      201.891    0.8        0.8        0.8       
890.9      0.224208   -9999      -9999      290.9395   11.419     11.605     1.829      1.811      1.995      2.583      2.905      3.07       1.72       1.67       0.01       -0.1143713 -9999      0.00596763 -9999      0.004289259 0.07465687 2.565      2.905      0          -9999      201.503    0.8        0.8        0.8       
891        0.225408   -9999      -9999      301.1315   12.431     11.522     1.646      1.652      1.818      2.373      2.675      2.85       1.68       1.57       0.01       -0.0886228 -9999      0.01927603 -9999      0.004289259 0.01944002 2.522      2.675      0          -9999      200.889    0.8        0.8        0.8       
891.1      0.239008   -9999      -9999      303.0563   13.245     11.332     1.504      1.536      1.672      2.225      2.542      2.56       1.61       1.42       0.01       -0.06227541 -9999      0.02168882 -9999      0.004289259 0.006586534 2.478      2.542      0          -9999      200.637    0.8        0.8        0.8       
891.2000000000001 0.252708   -9999      -9999      320.7545   13.97      10.947     1.42       1.487      1.617      2.172      2.511      2.3        1.49       1.33       0.01       -0.04790419 -9999      0.04251735 -9999      0.004289259 0.002511946 2.454      2.511      0          -9999      200.341    0.8        0.8        0.8       
891.3      0.263308   -9999      -9999      328.5396   13.622     10.478     1.522      1.593      1.683      2.231      2.573      2.23       1.44       1.3        0.01       -0.04311384 -9999      0.0509688  -9999      0.004289259 0.003989887 2.446      2.573      0          -9999      200.009    0.8        0.8        0.8       
891.4      0.250708   -9999      -9999      345.2187   14.047     10.065     1.755      1.791      1.832      2.377      2.706      2.27       1.37       1.29       0.01       -0.05508987 -9999      0.0677923  -9999      0.004289259 0.002267498 2.466      2.706      0          -9999      199.861    0.8        0.8        0.8       
891.5      0.244408   -9999      -9999      351.6377   14.45      9.756      1.854      1.868      1.919      2.51       2.925      2.3        1.2        1.27       0.01       -0.07065874 -9999      0.07384161 -9999      0.004289259 0.001326897 2.492      2.925      0          -9999      199.556    0.8        0.8        0.8       
891.6      0.240008   -9999      -9999      358.7174   14.56      9.471      1.89       1.883      1.973      2.632      3.148      2.35       1.13       1.27       0.01       -0.06347307 -9999      0.08026247 -9999      0.004289259 0.001146351 2.48       3.148      0          -9999      199.396    0.8        0.8        0.8       
891.7000000000001 0.238508   -9999      -9999      358.5818   13.827     9.387001   2.03       2.067      2.139      2.861      3.367      2.38       1.24       1.41       0.01761587 -0.04491011 -9999      0.08014186 -9999      0.005935356 0.003037978 2.449      3.367      0          -9999      199.526    0.8        0.8        0.8       
891.8      0.245708   -9999      -9999      353.5546   13.058     9.272      2.39       2.447      2.463      3.246      3.693      2.68       1.5        1.68       0.02013804 -0.0353294 -9999      0.07560548 -9999      0.006609421 0.008445766 2.433      3.693      0          -9999      199.436    0.8        0.8        0.8       
891.9      0.226008   -9999      -9999      347.2558   12.388     9.380999   3.115      3.153      3.05       3.771      4.023      3.38       1.9        2.19       0.01001784 -0.04970061 -9999      0.06973629 -9999      0.004292524 0.02058386 2.457      4.023      0          -9999      199.533    0.8        0.8        0.8       
892        0.225308   -9999      -9999      336.3966   11.712     9.478      3.96       3.781000000000001 3.516000000000001 4.109      4.164000000000001 5.4        2.48       2.68       0.01       -0.0928144 -9999      0.05910166 -9999      0.004289259 0.05056836 2.529      4.164      0          -9999      199.578    0.8        0.8        0.8       
892.1      0.224008   -9999      -9999      329.4254   10.772     10.008     3.856      3.591      3.275999999999999 3.844      3.987000000000001 7.89       2.66       2.87       0.01       -0.1281438 -9999      0.05190508 -9999      0.004289259 0.1764721  2.588      3.987      0          -9999      199.914    0.8        0.8        0.8       
892.2000000000001 0.223308   -9999      -9999      324.5618   10.159     10.058     2.986      2.833      2.694      3.206      3.571      7.68       2.41       2.32       0.01       -0.145509  -9999      0.04670125 -9999      0.004289259 0.3987025  2.617      3.571      0          -9999      200.135    0.8        0.8        0.8       
892.3      0.224408   -9999      -9999      322.4176   9.973      10.173     2.214      2.176      2.255      2.741      3.084      4.49       1.72       1.71       0.01       -0.1281438 -9999      0.04435709 -9999      0.004289259 0.5105684  2.588      3.084      0          -9999      200.328    0.8        0.8        0.8       
892.4      0.235708   -9999      -9999      325.8853   10.606     9.861      1.95       1.963      2.079      2.537      2.763      3.3        1.53       1.55       0.01       -0.09221564 -9999      0.04813266 -9999      0.004289259 0.2200554  2.528      2.763      0          -9999      200.961    0.8        0.8        0.8       
892.5      0.248208   -9999      -9999      327.2091   12.043     9.247      1.971      1.997      2.084      2.516      2.608      2.98       1.58       1.58       0.01       -0.05449097 -9999      0.04955298 -9999      0.004289259 0.03256452 2.465      2.608      0          -9999      201.446    0.8        0.8        0.8       
