~Version
 VERS              .         2.0                           : CWLS LOG ASCII STANDARD - VERSION 2.0
 WRAP              .         NO                            : ONE LINE PER DEPTH STEP
 DLM               .         SPACE                         : DELIMITING CHARACTER(SPACE TAB OR COMMA)
~Well Information
#_______________________________________________________________________________
#
#PARAMETER_NAME    .UNIT     VALUE                         : DESCRIPTION
#_______________________________________________________________________________
STRT               .M        218.7                         : First reference value
STOP               .M        1168.5                        : Last reference value
STEP               .M        0.1                           : Step increment
NULL               .         -9999                         : Missing value
COMP               .                                       : Company
WELL               .         9671                          : Well name
FLD                .         УЗЕНЬ                         : Field
LOC                .                                       : Location
CNTY               .                                       : County
STAT               .                                       : State
CTRY               .                                       : Country
SRVC               .         AO "UPGF"                     : Service Company
DATE               .         8/2/2018                      : Date
API                .                                       : API number
Block              .         6а                            : 
Cartographic_reference_system .         GCS_WGS_1984                  : ESRI,PE_10_3_1- <?xml version="1.0" encoding="utf-16"?><ILateBoundCoordinateReferenceSystem name="GCS_WGS_1984"><AuthorityCode>EPSG,4326</AuthorityCode></ILateBoundCoordinateReferenceSystem>
Category           .         Нефтяная                      : 
Condition          .         В работе                      : 
Date               .         03.03.2018                    : 
EREF               .m        77.812                        : 
GRP                .                                       : Group name
HZCS               .GCS_WGS_1984 WGS_1984_EASE-Grid_2.0_Global : ESRI,PE_10_3_1- <?xml version="1.0" encoding="utf-16"?><ILateBoundCoordinateReferenceSystem name="WGS_1984_EASE-Grid_2.0_Global"><AuthorityCode>EPSG,6933</AuthorityCode></ILateBoundCoordinateReferenceSystem>
ISS                .                                       : Well surUveys
Interpretator      .         Ким С.В.                      : 
LATI               .dega     0.6667519455                  : GCS_WGS_1984
LONG               .dega     0.4550595161                  : GCS_WGS_1984
Mud                .         калий-хлор                    : 
Mud_density        .         1.34                          : 
Mud_resistivity    .         0.03                          : 
NGDU               .         НГДУ-2                        : 
SPDA               .         08/02/2018                    : 
TIME               .                                       : LOG TIME
Viscosity          .         45                            : 
X                  .m        43907.00                      : 
Y                  .m        85057.87                      : 
YEAR               .         2018                          : 
~Parameter Information Block
#_______________________________________________________________________________
#
#PARAMETER_NAME    .UNIT     VALUE                         : DESCRIPTION
#_______________________________________________________________________________
SET                .         LQC_KAZNIPI_Petrel            : 
TLFamily_CALI      .         Caliper                       : 
TLFamily_COLL      .         Net Reservoir Flag            : 
TLFamily_CSAT      .         Fluid Code                    : 
TLFamily_DEPT      .         Measured Depth                : 
TLFamily_DT        .         Compressional Slowness        : 
TLFamily_GR        .         Russian Gamma Ray             : 
TLFamily_GZ3       .         Gradient 225                  : 
TLFamily_IK1       .         Resistivity 05                : 
TLFamily_IK2       .         Resistivity 07                : 
TLFamily_IK3       .         Resistivity 10                : 
TLFamily_IK4       .         Resistivity 14                : 
TLFamily_IK5       .         Resistivity 20                : 
TLFamily_LLS       .         Lateral Log Resistivity       : 
TLFamily_MINV      .         Micro Gradient Resistivity    : 
TLFamily_MNOR      .         Micro Resistivity             : 
TLFamily_PHIE      .         Effective Porosity            : 
TLFamily_PHIED     .         Effective Porosity            : 
TLFamily_PHIEN     .         Effective Porosity            : 
TLFamily_PHIES     .         Effective Porosity            : 
TLFamily_PHIT      .         Porosity                      : 
TLFamily_PRMB      .         Permeability                  : 
TLFamily_PRMB_DGR  .         Permeability                  : 
TLFamily_RHOB      .         Bulk Density                  : 
TLFamily_RT        .         Formation Resistivity         : 
TLFamily_SOIL_ARCHIE .         Oil Saturation                : 
TLFamily_SOIL_DW   .         Oil Saturation                : 
TLFamily_SP        .         Spontaneous Potential         : 
TLFamily_VSH_FIN   .         Shale Volume                  : 
TLFamily_VSH_GR    .         Shale Volume                  : 
TLFamily_VSH_SP    .         Shale Volume                  : 
~Curve Information
#_______________________________________________________________________________
#
#LOGNAME           .UNIT     LOG_ID                        : DESCRIPTION
#_______________________________________________________________________________
DEPT               .M                                      : Depth curve 
CALI               .M                                      : Кавернометрия 
COLL               .unitless                               : Описание 
CSAT               .unitless                               : Описание 
DT                 .мкс/м                                  : 1 ДельтаТ - Волна по 
GR                 .uR/h                                   : ГК 
GZ3                .Ohmm                                   : A2.0M0.5N 
IK1                .Ohmm                                   : И0.10И0.40 
IK2                .Ohmm                                   : И0.14И0.56 
IK3                .Ohmm                                   : И0.20И0.8 
IK4                .Ohmm                                   : И0.28И1.12 
IK5                .Ohmm                                   : И0.40И1.60 
LLS                .Ohmm                                   : БК, Омм 
MINV               .Ohmm                                   : МГЗ, Омм 
MNOR               .Ohmm                                   : МПЗ, Омм 
PHIE               .v/v                                    : Описание 
PHIED              .v/v                                    :  
PHIEN              .v/v                                    : Porosity by NL 
PHIES              .v/v                                    :  
PHIT               .v/v                                    : Описание 
PRMB               .мД                                     :  
PRMB_DGR           .мД                                     :  
RHOB               .G/CM3                                  : ГГКП 
RT                 .ohmm                                   : Description 
SOIL_ARCHIE        .v/v                                    :  
SOIL_DW            .v/v                                    :  
SP                 .мВ                                     : ПС 
VSH_FIN            .v/v                                    : Описание 
VSH_GR             .v/v                                    : Shale volume 
VSH_SP             .v/v                                    : Shale Volume 
~Ascii
# ...
986.6      0.223208   -9999      -9999      332.2095   9.794      2.903      1.3        1.292      1.342      1.695      1.732      1.6        1.48       1.37       0.07488801 0.01616221 -9999      0.1336138  -9999      0.06827563 1.507603   2.44       1.732      0          -9999      197.673    0.5486731  0.5486731  0.8       
986.7000000000001 0.227808   -9999      -9999      332.7231   9.924      2.728      1.318      1.32       1.368      1.719      1.758      1.63       1.58       1.45       0.07270415 0.01518623 -9999      0.1302221  -9999      0.06220357 1.426602   2.437      1.758      0          -9999      197.765    0.5611864  0.5611864  0.8       
986.8      0.239308   -9999      -9999      330.3557   9.944      2.842      1.338      1.344      1.39       1.726      1.781      1.7        1.62       1.5        0.06735761 0.007568574 -9999      0.1271466  -9999      0.04952042 1.414532   2.449      1.781      0          -9999      197.59     0.5631368  0.5631368  0.8       
986.9      0.223508   -9999      -9999      332.3463   9.717      2.743      1.336      1.347      1.398      1.722      1.799      1.69       1.59       1.52       0.06822392 0.0004097983 -9999      0.136038   -9999      0.0513843  1.557732   2.469      1.799      0          -9999      197.559    0.5413933  0.5413933  0.8       
987        0.224008   -9999      -9999      330.9439   9.779      2.881      1.33       1.346      1.398      1.715      1.808      1.67       1.59       1.48       0.06053918 -0.01166557 -9999      0.1327439  -9999      0.03702462 1.51724    2.487      1.808      0          -9999      197.421    0.5472474  0.5472474  0.8       
987.1      0.224008   -9999      -9999      333.5344   9.789      2.862      1.321      1.337      1.396      1.706      1.804      1.63       1.57       1.42       0.06462143 -0.005888043 -9999      0.1351309  -9999      0.04406602 1.510808   2.477      1.804      0          -9999      197.314    0.5481974  0.5481974  0.8       
987.2000000000001 0.228308   -9999      -9999      333.4704   9.67       2.749      1.308      1.326      1.389      1.694      1.793      1.61       1.51       1.4        0.07357299 0.008569419 -9999      0.1385766  -9999      0.0645518  1.589146   2.457      1.793      0          -9999      197.313    0.5369974  0.5369974  0.8       
987.3      0.226208   -9999      -9999      334.7573   9.93       2.79       1.298      1.317      1.366      1.682      1.776      1.59       1.57       1.39       0.07119732 0.01026639 -9999      0.1321282  -9999      0.05833176 1.42297    2.445      1.776      0          -9999      197.156    0.5617708  0.5617708  0.8       
987.4      0.235508   -9999      -9999      334.8965   10.205     2.755      1.286      1.308      1.352      1.673      1.761      1.56       1.61       1.39       0.06182917 -0.0000064 -9999      0.1236647  -9999      0.03911868 1.266078   2.452      1.761      0          -9999      197.377    0.5892181  0.5892181  0.8       
987.5      0.231208   -9999      -9999      334.6342   10.294     2.942      1.283      1.306      1.358      1.671      1.754      1.59       1.55       1.42       0.04906302 -0.02239676 -9999      0.1205228  -9999      0.02269468 1.219104   2.486      1.754      0          -9999      197.729    0.5983852  0.5983852  0.8       
987.6      0.238908   -9999      -9999      334.0757   10.165     2.817      1.311      1.338      1.384      1.701      1.758      1.63       1.61       1.47       0.04004443 -0.04401391 -9999      0.1241028  -9999      0.01544821 1.287776   2.527      1.758      0          -9999      198.39     0.585144   0.585144   0.8       
987.7000000000001 0.238508   -9999      -9999      332.8833   10.091     2.835      1.359      1.383      1.416      1.738      1.77       1.71       1.7        1.5        0.0387332  -0.04774965 -9999      0.1252161  -9999      0.014608   1.328901   2.536      1.77       0          -9999      198.911    0.5776808  0.5776808  0.8       
987.8      0.235508   -9999      -9999      331.7049   10.228     2.946      1.396      1.416      1.436      1.762      1.784      1.74       1.74       1.52       0.03680106 -0.04603733 -9999      0.1196394  -9999      0.0134525  1.253768   2.528      1.784      0          -9999      199.026    0.5915736  0.5915736  0.8       
987.9      0.228008   -9999      -9999      330.3202   10.151     3.189      1.409      1.425      1.441      1.765      1.797      1.72       1.74       1.5        0.03907629 -0.04250193 -9999      0.1206545  -9999      0.01482333 1.295457   2.525      1.797      0          -9999      199.412    0.5837247  0.5837247  0.8       
988        0.228108   -9999      -9999      329.2064   10         3.016      1.395      1.411      1.431      1.752      1.794      1.67       1.64       1.45       0.04612074 -0.03197274 -9999      0.1242142  -9999      0.02001825 1.381279   2.513      1.794      0          -9999      200.291    0.5686337  0.5686337  0.8       
988.1      0.228508   -9999      -9999      328.4837   9.798      2.982      1.382      1.397      1.423      1.733      1.784      1.6        1.54       1.43       0.05876134 -0.01206584 -9999      0.1295885  -9999      0.03432106 1.505043   2.487      1.784      0          -9999      200.316    0.549054   0.549054   0.8       
988.2000000000001 0.239208   -9999      -9999      328.5918   9.767      2.985      1.39       1.401      1.429      1.724      1.771      1.56       1.51       1.42       0.06918731 0.007748267 -9999      0.1306264  -9999      0.05353956 1.524994   2.455      1.771      0          -9999      200.283    0.5461094  0.5461094  0.8       
988.3      0.223908   -9999      -9999      328.6313   9.858      3.008      1.399      1.404      1.435      1.72       1.762      1.58       1.47       1.41       0.0695781  0.01121231 -9999      0.1279439  -9999      0.0544394  1.467166   2.446      1.762      0          -9999      200.352    0.5547982  0.5547982  0.8       
988.4      0.230808   -9999      -9999      330.6881   9.606      3.124      1.393      1.387      1.428      1.715      1.759      1.6        1.44       1.38       0.08030282 0.02305665 -9999      0.137549   -9999      0.0860124  1.632944   2.435      1.759      0          -9999      200.474    0.5310688  0.5310688  0.8       
988.5      0.232208   -9999      -9999      331.2906   9.699      3.11       1.38       1.368      1.413      1.708      1.755      1.59       1.47       1.37       0.08070186 0.02593346 -9999      0.1354703  -9999      0.08748876 1.569689   2.427      1.755      0          -9999      200.801    0.5397056  0.5397056  0.8       
988.6      0.233808   -9999      -9999      333.7953   10.126     2.998      1.37       1.355      1.394      1.705      1.75       1.57       1.51       1.39       0.06760284 0.01015358 -9999      0.1250521  -9999      0.05004108 1.309288   2.438      1.75       0          -9999      200.49     0.5811988  0.5811988  0.8       
988.7000000000001 0.237508   -9999      -9999      334.7741   10.15      3.065      1.366      1.348      1.381      1.71       1.75       1.59       1.56       1.45       0.05727553 -0.01074284 -9999      0.1252939  -9999      0.03221364 1.296008   2.472      1.75       0          -9999      199.949    0.5836234  0.5836234  0.8       
988.8      0.224208   -9999      -9999      335.5938   9.904      2.981      1.374      1.352      1.381      1.721      1.759      1.62       1.63       1.51       0.054036   -0.02570055 -9999      0.1337726  -9999      0.02805666 1.438774   2.506      1.759      0          -9999      199.758    0.5592429  0.5592429  0.8       
988.9      0.222208   -9999      -9999      336.1142   9.525      2.989      1.391      1.367      1.393      1.732      1.776      1.62       1.65       1.54       0.05693391 -0.03158917 -9999      0.145457   -9999      0.0317477  1.690112   2.529      1.776      0          -9999      199.792    0.5236591  0.5236591  0.8       
989        0.230508   -9999      -9999      335.1844   9.585      3.016      1.401      1.373      1.402      1.734      1.796      1.61       1.63       1.51       0.04960684 -0.04358139 -9999      0.1427951  -9999      0.02322721 1.647577   2.547      1.796      0          -9999      199.745    0.5291378  0.5291378  0.8       
