~Version
 VERS              .         2.0                           : CWLS LOG ASCII STANDARD - VERSION 2.0
 WRAP              .         NO                            : ONE LINE PER DEPTH STEP
 DLM               .         SPACE                         : DELIMITING CHARACTER(SPACE TAB OR COMMA)
~Well Information
#_______________________________________________________________________________
#
#PARAMETER_NAME    .UNIT     VALUE                         : DESCRIPTION
#_______________________________________________________________________________
STRT               .M        218.7                         : First reference value
STOP               .M        1168.5                        : Last reference value
STEP               .M        0.1                           : Step increment
NULL               .         -9999                         : Missing value
COMP               .                                       : Company
WELL               .         9671                          : Well name
FLD                .         УЗЕНЬ                         : Field
LOC                .                                       : Location
CNTY               .                                       : County
STAT               .                                       : State
CTRY               .                                       : Country
SRVC               .         AO "UPGF"                     : Service Company
DATE               .         8/2/2018                      : Date
API                .                                       : API number
Block              .         6а                            : 
Cartographic_reference_system .         GCS_WGS_1984                  : ESRI,PE_10_3_1- <?xml version="1.0" encoding="utf-16"?><ILateBoundCoordinateReferenceSystem name="GCS_WGS_1984"><AuthorityCode>EPSG,4326</AuthorityCode></ILateBoundCoordinateReferenceSystem>
Category           .         Нефтяная                      : 
Condition          .         В работе                      : 
Date               .         03.03.2018                    : 
EREF               .m        77.812                        : 
GRP                .                                       : Group name
HZCS               .GCS_WGS_1984 WGS_1984_EASE-Grid_2.0_Global : ESRI,PE_10_3_1- <?xml version="1.0" encoding="utf-16"?><ILateBoundCoordinateReferenceSystem name="WGS_1984_EASE-Grid_2.0_Global"><AuthorityCode>EPSG,6933</AuthorityCode></ILateBoundCoordinateReferenceSystem>
ISS                .                                       : Well surUveys
Interpretator      .         Ким С.В.                      : 
LATI               .dega     0.6667519455                  : GCS_WGS_1984
LONG               .dega     0.4550595161                  : GCS_WGS_1984
Mud                .         калий-хлор                    : 
Mud_density        .         1.34                          : 
Mud_resistivity    .         0.03                          : 
NGDU               .         НГДУ-2                        : 
SPDA               .         08/02/2018                    : 
TIME               .                                       : LOG TIME
Viscosity          .         45                            : 
X                  .m        43907.00                      : 
Y                  .m        85057.87                      : 
YEAR               .         2018                          : 
~Parameter Information Block
#_______________________________________________________________________________
#
#PARAMETER_NAME    .UNIT     VALUE                         : DESCRIPTION
#_______________________________________________________________________________
SET                .         LQC_KAZNIPI_Petrel            : 
TLFamily_CALI      .         Caliper                       : 
TLFamily_COLL      .         Net Reservoir Flag            : 
TLFamily_CSAT      .         Fluid Code                    : 
TLFamily_DEPT      .         Measured Depth                : 
TLFamily_DT        .         Compressional Slowness        : 
TLFamily_GR        .         Russian Gamma Ray             : 
TLFamily_GZ3       .         Gradient 225                  : 
TLFamily_IK1       .         Resistivity 05                : 
TLFamily_IK2       .         Resistivity 07                : 
TLFamily_IK3       .         Resistivity 10                : 
TLFamily_IK4       .         Resistivity 14                : 
TLFamily_IK5       .         Resistivity 20                : 
TLFamily_LLS       .         Lateral Log Resistivity       : 
TLFamily_MINV      .         Micro Gradient Resistivity    : 
TLFamily_MNOR      .         Micro Resistivity             : 
TLFamily_PHIE      .         Effective Porosity            : 
TLFamily_PHIED     .         Effective Porosity            : 
TLFamily_PHIEN     .         Effective Porosity            : 
TLFamily_PHIES     .         Effective Porosity            : 
TLFamily_PHIT      .         Porosity                      : 
TLFamily_PRMB      .         Permeability                  : 
TLFamily_PRMB_DGR  .         Permeability                  : 
TLFamily_RHOB      .         Bulk Density                  : 
TLFamily_RT        .         Formation Resistivity         : 
TLFamily_SOIL_ARCHIE .         Oil Saturation                : 
TLFamily_SOIL_DW   .         Oil Saturation                : 
TLFamily_SP        .         Spontaneous Potential         : 
TLFamily_VSH_FIN   .         Shale Volume                  : 
TLFamily_VSH_GR    .         Shale Volume                  : 
TLFamily_VSH_SP    .         Shale Volume                  : 
~Curve Information
#_______________________________________________________________________________
#
#LOGNAME           .UNIT     LOG_ID                        : DESCRIPTION
#_______________________________________________________________________________
DEPT               .M                                      : Depth curve 
CALI               .M                                      : Кавернометрия 
COLL               .unitless                               : Описание 
CSAT               .unitless                               : Описание 
DT                 .мкс/м                                  : 1 ДельтаТ - Волна по 
GR                 .uR/h                                   : ГК 
GZ3                .Ohmm                                   : A2.0M0.5N 
IK1                .Ohmm                                   : И0.10И0.40 
IK2                .Ohmm                                   : И0.14И0.56 
IK3                .Ohmm                                   : И0.20И0.8 
IK4                .Ohmm                                   : И0.28И1.12 
IK5                .Ohmm                                   : И0.40И1.60 
LLS                .Ohmm                                   : БК, Омм 
MINV               .Ohmm                                   : МГЗ, Омм 
MNOR               .Ohmm                                   : МПЗ, Омм 
PHIE               .v/v                                    : Описание 
PHIED              .v/v                                    :  
PHIEN              .v/v                                    : Porosity by NL 
PHIES              .v/v                                    :  
PHIT               .v/v                                    : Описание 
PRMB               .мД                                     :  
PRMB_DGR           .мД                                     :  
RHOB               .G/CM3                                  : ГГКП 
RT                 .ohmm                                   : Description 
SOIL_ARCHIE        .v/v                                    :  
SOIL_DW            .v/v                                    :  
SP                 .мВ                                     : ПС 
VSH_FIN            .v/v                                    : Описание 
VSH_GR             .v/v                                    : Shale volume 
VSH_SP             .v/v                                    : Shale Volume 
~Ascii
# ...
870.5      0.218808   -9999      -9999      357.0912   9.592      3.544      0.822      1.32       1.644      2.039      2.147      1.46       -9999      -9999      -9999      -9999      -9999      -9999      -9999      -9999      -9999      -9999      -9999      -9999      -9999      218.246    -9999      0.6595533  0.8       
870.6      0.219308   -9999      -9999      357.4493   9.085      3.38       0.791      1.267      1.656      2.101      2.257      1.39       -9999      -9999      -9999      -9999      -9999      -9999      -9999      -9999      -9999      -9999      -9999      -9999      -9999      217.993    -9999      0.4699683  0.8       
870.7000000000001 0.218908   -9999      -9999      359.8567   9.848      3.171      0.795      1.309      1.792      2.296      2.454      1.35       -9999      -9999      -9999      -9999      -9999      -9999      -9999      -9999      -9999      -9999      -9999      -9999      -9999      217.888    -9999      0.7826477  0.8       
870.8      0.220008   -9999      -9999      357.352    10.036     3.246      0.876      1.498      2.12       2.655      2.73       1.42       -9999      -9999      -9999      -9999      -9999      -9999      -9999      -9999      -9999      -9999      -9999      -9999      -9999      217.459    -9999      0.8        0.8       
870.9      0.220208   -9999      -9999      356.1209   10.36      3.196      1.066      1.866      2.59       3.157      3.024      1.86       -9999      -9999      -9999      -9999      -9999      -9999      -9999      -9999      -9999      -9999      -9999      -9999      -9999      217.186    -9999      0.8        0.8       
871        0.223108   -9999      -9999      352.8662   11.012     3.152      1.322      2.158      2.841      3.449      3.247      2.47       -9999      -9999      -9999      -9999      -9999      -9999      -9999      -9999      -9999      -9999      -9999      -9999      -9999      216.648    -9999      0.8        0.8       
871.1      0.221908   -9999      -9999      350.2272   11.574     3.395      1.473      2.129      2.742      3.343      3.312      2.84       -9999      -9999      -9999      -9999      -9999      -9999      -9999      -9999      -9999      2.383      -9999      -9999      -9999      215.939    -9999      0.8        0.8       
871.2000000000001 0.221308   -9999      -9999      347.5385   12.023     3.585      1.567      2.002      2.586      3.066      3.195      2.61       -9999      -9999      -9999      -9999      -9999      -9999      -9999      -9999      -9999      2.404      -9999      -9999      -9999      214.814    -9999      0.8        0.8       
871.3      0.219708   -9999      -9999      345.8729   12.414     3.817      1.578      1.839      2.409      2.844      2.971      2.43       -9999      -9999      -9999      -9999      -9999      -9999      -9999      -9999      -9999      2.411      -9999      -9999      -9999      213.9      -9999      0.8        0.8       
871.4      0.220408   -9999      -9999      343.6253   12.653     3.904      1.534      1.707      2.177      2.653      2.804      2.32       -9999      -9999      -9999      -9999      -9999      -9999      -9999      -9999      -9999      2.397      -9999      -9999      -9999      213.077    -9999      0.8        0.8       
871.5      0.220008   -9999      -9999      343.4809   12.774     4.185      1.503      1.672      2.038      2.514      2.711      2.29       -9999      -9999      -9999      -9999      -9999      -9999      -9999      -9999      -9999      2.376      -9999      -9999      -9999      212.101    -9999      0.8        0.8       
871.6      0.220908   -9999      -9999      342.1546   13.004     4.475      1.518      1.709      1.999      2.451      2.654      2.48       0.82       1.11       -9999      -9999      -9999      -9999      -9999      -9999      -9999      2.38       -9999      -9999      -9999      210.925    -9999      0.8        0.8       
871.7000000000001 0.222208   -9999      -9999      344.6935   12.896     4.401      1.58       1.782      2.009      2.445      2.62       2.83       0.97       1.21       -9999      -9999      -9999      -9999      -9999      -9999      -9999      2.41       -9999      -9999      -9999      210.027    -9999      0.8        0.8       
871.8      0.223208   -9999      -9999      344.6267   13.378     4.672      1.693      1.853      2.063      2.474      2.585      2.95       1.18       1.36       -9999      -9999      -9999      -9999      -9999      -9999      -9999      2.445      -9999      -9999      -9999      208.979    -9999      0.8        0.8       
871.9      0.223408   -9999      -9999      349.3671   13.17      4.569      1.812      1.913      2.14       2.52       2.55       2.93       1.35       1.45       -9999      -9999      -9999      -9999      -9999      -9999      -9999      2.472      -9999      -9999      -9999      208.164    -9999      0.8        0.8       
872        0.223108   -9999      -9999      347.2853   13.321     4.768      1.888      1.947      2.174      2.543      2.525      3.06       1.32       1.46       -9999      -9999      -9999      -9999      -9999      -9999      -9999      2.47       -9999      -9999      -9999      207.501    -9999      0.8        0.8       
872.1      0.223208   -9999      -9999      350.7761   14.032     4.736      1.89       1.908      2.133      2.52       2.491      3.13       1.11       1.3        -9999      -9999      -9999      -9999      -9999      -9999      -9999      2.442      -9999      -9999      -9999      206.897    -9999      0.8        0.8       
872.2000000000001 0.223508   -9999      -9999      345.0834   13.506     4.711      1.764      1.779      2.015      2.443      2.461      2.74       0.83       1.06       -9999      -9999      -9999      -9999      -9999      -9999      -9999      2.369      -9999      -9999      -9999      206.425    -9999      0.8        0.8       
872.3      0.222108   -9999      -9999      347.3766   12.871     4.503      1.55       1.576      1.883      2.353      2.45       1.93       0.71       0.89       -9999      -9999      -9999      -9999      -9999      -9999      -9999      2.32       -9999      -9999      -9999      206.468    -9999      0.8        0.8       
872.4      0.219008   -9999      -9999      342.8063   12.732     4.383999   1.345      1.461      1.844      2.355      2.482      1.51       0.76       0.95       -9999      -9999      -9999      -9999      -9999      -9999      -9999      2.337      -9999      -9999      -9999      206.334    -9999      0.8        0.8       
872.5      0.220408   -9999      -9999      347.2421   12.415     4.234      1.388      1.662      2.032      2.515      2.566      1.88       0.92       1.18       -9999      -9999      -9999      -9999      -9999      -9999      -9999      2.394      -9999      -9999      -9999      206.33     -9999      0.8        0.8       
872.6      0.223808   -9999      -9999      346.9969   12.626     3.981      1.678      2.06       2.36       2.771      2.716      2.53       1.18       1.41       -9999      -9999      -9999      -9999      -9999      -9999      -9999      2.453      -9999      -9999      -9999      206.805    -9999      0.8        0.8       
872.7000000000001 0.225108   -9999      -9999      353.2415   13.125     4.052      1.937      2.307      2.589      2.982      2.869      2.91       1.35       1.56       -9999      -9999      -9999      -9999      -9999      -9999      -9999      2.476      -9999      -9999      -9999      207.05     -9999      0.8        0.8       
872.8      0.225808   -9999      -9999      355.0339   13.609     4.005      2.032      2.327      2.617      3.037      2.961      3.08       1.48       1.67       -9999      -9999      -9999      -9999      -9999      -9999      -9999      2.471      -9999      -9999      -9999      207.784    -9999      0.8        0.8       
872.9      0.226108   -9999      -9999      359.8632   13.96      4.058      2.045      2.214      2.516      2.983      2.976      3.03       1.52       1.64       -9999      -9999      -9999      -9999      -9999      -9999      -9999      2.463      -9999      -9999      -9999      207.94     -9999      0.8        0.8       
